direccion|precio_uf|metros_cuadrados|dormitorios|banios|latitude|longitude|url
|2950|41|2|1|||https://www.portalinmobiliario.com/MLC-2338994470-depto-2d-1b-balcon-3941m2-lord-cochrane-302-_JM#position=1&search_layout=grid&type=item&tracking_id=1bf44437-986d-4cfe-8f9c-77f07a1dd275
Metro La Moneda, Terraza, Centro Histórico de Santiago, Santiago, RM (Metropolitana)|2050|30|1|1|-33.4427272|-70.6581103|https://www.portalinmobiliario.com/MLC-2333973956-metro-la-moneda-terraza-_JM#position=15&search_layout=grid&type=item&tracking_id=6a0541ab-6da3-49a5-9586-47dd564c67b2
General Bulnes 1 - 300, Santiago, Chile, Barrio Yungay, Santiago, RM (Metropolitana)|3575|81|3|2|-33.4420718|-70.6701625|https://www.portalinmobiliario.com/MLC-1457493349-iluminado-y-remodelado-anos-60-_JM#position=2&search_layout=grid&type=item&tracking_id=555da293-94ea-4d7a-8a9e-13990a6993fc
Ejercito, Ejército - Toesca, Santiago, RM (Metropolitana)|2110|37|1|1|-33.4564026|-70.6588846|https://www.portalinmobiliario.com/MLC-2305324476-departamento-en-venta-de-un-dormitorio-en-santiago-_JM#position=19&search_layout=grid&type=item&tracking_id=319a118d-4a66-464a-abf2-7887ae2971a1
Club Hípico 1240, Santiago, Chile, Parque O'Higgins, Santiago, RM (Metropolitana)|4018|63|2|2|-33.4628757|-70.6643004|https://www.portalinmobiliario.com/MLC-1454465139-dpto-2d2b-club-hipico-movistar-arena-parque-ohiggins-_JM#position=8&search_layout=grid&type=item&tracking_id=c387fd51-ec6e-4a4e-9857-2b3350d793a3
San Isidro 292, Santiago, Chile, Santa Isabel, Santiago, RM (Metropolitana)|2300|56|2|2|-33.4475723|-70.6428619|https://www.portalinmobiliario.com/MLC-2281955072-oportunidadcon-estacionamiento-centrico-en-venta-_JM#position=36&search_layout=grid&type=item&tracking_id=fb6bdd86-4650-4840-a318-90f65a059938
Merced, Barrio Lastarria, Santiago, RM (Metropolitana)|3225|53|1|1|-33.4378166|-70.6410767|https://www.portalinmobiliario.com/MLC-2254530914-merced-11414-_JM#position=43&search_layout=grid&type=item&tracking_id=57d97b73-890b-45d1-95ef-2187c7939a83
Argomedo Con Vicuña Mackenna, Santa Isabel, Santiago, RM (Metropolitana)|3200|56|2|2|-33.4489553|-70.6328013|https://www.portalinmobiliario.com/MLC-1476185441-argomedo-con-vicuna-mackenna-2170-_JM#position=12&search_layout=grid&type=item&tracking_id=87d5049e-0fb5-461b-84d9-52af890f5436
Carmen/ Santa Isabel, Santa Isabel, Santiago, RM (Metropolitana)|2300|35|1|1|-33.449294|-70.6421503|https://www.portalinmobiliario.com/MLC-2303888676-departamento-en-venta-de-1-dorm-en-santiago-_JM#position=24&search_layout=grid&type=item&tracking_id=08583c8e-4fe9-4051-82a4-aa9ad5a506e4
Santa Elena, Bogotá - Sierra Bella, Santiago, RM (Metropolitana)|3400|45|3|2|-33.4663656|-70.6278835|https://www.portalinmobiliario.com/MLC-2301753022-departamento-santa-elena-id-122326-_JM#position=47&search_layout=grid&type=item&tracking_id=c90c8392-2534-4859-ae8c-cdf6a80846da
General Mackenna/ Bandera, Centro Histórico de Santiago, Santiago, RM (Metropolitana)|3500|74|2|2|-33.433045|-70.6550931|https://www.portalinmobiliario.com/MLC-1463465999-departamento-en-venta-en-santiago-_JM#position=45&search_layout=grid&type=item&tracking_id=5ef97249-5004-442d-af04-66956ff68288
Avenida Santa Isabel 951, Santiago, Chile, San Diego, Santiago, RM (Metropolitana)|2470|75|2|2|-33.4508274|-70.6485489|https://www.portalinmobiliario.com/MLC-2376721734-venta-de-departamento-muy-bien-ubicado-_JM#position=16&search_layout=grid&type=item&tracking_id=976b7e28-2715-4122-a02d-333000b0d300
Vicuña Mackenna, Bogotá - Sierra Bella, Santiago, RM (Metropolitana)|2200|42|2|1|-33.4664034|-70.6270115|https://www.portalinmobiliario.com/MLC-2370773684-departamento-en-venta-de-2-dorm-en-santiago-_JM#position=26&search_layout=grid&type=item&tracking_id=3d7f6e32-fa6b-4bfe-bb60-e2ccc3d34c09
San Ignacio De Loyola 902, Santiago, Chile, Parque Almagro, Santiago, RM (Metropolitana)|1881|36|2|1|-33.4579393|-70.6553969|https://www.portalinmobiliario.com/MLC-1468707499-departamento-dos-dormitorios-metro-padre-ohiggins-_JM#position=42&search_layout=grid&type=item&tracking_id=0c81ca27-5b6d-4e81-a06d-cbca10b4a524
Calle San Ignacio De Loyola, Parque Almagro, Santiago, RM (Metropolitana)|2300|44|2|2|-33.4516976|-70.6563562|https://www.portalinmobiliario.com/MLC-1454772395-departamento-calle-san-ignacio-de-loyola-id-106106-_JM#position=14&search_layout=grid&type=item&tracking_id=860b5343-80ff-4fb0-8114-58a9f2a757f3
Cienfuegos 1 - 300, Santiago, Chile, Barrio Brasil, Santiago, RM (Metropolitana)|1850|21|1|1|-33.4436432|-70.6633869|https://www.portalinmobiliario.com/MLC-2137515862-estudio-metro-los-heroes-ideal-inversion-_JM#position=47&search_layout=grid&type=item&tracking_id=eb609bb0-7d42-4cfe-86bb-e04898ff9373
Bogotá - Sierra Bella, Santiago, RM (Metropolitana)|3000|54|3|2|-33.466403|-70.627011|https://www.portalinmobiliario.com/MLC-2189634824-departamento-en-venta-3d-2b-santiago-_JM#position=43&search_layout=grid&type=item&tracking_id=feed9058-fd81-49fc-b95e-4ff3f7520f6a
Avenida Santa Isabel 360, Santiago, Chile, Santa Isabel, Santiago, RM (Metropolitana)|3000|54|2|2|-33.4490188|-70.6373848|https://www.portalinmobiliario.com/MLC-1478281811-comodo-depto-comuna-santiago-estacion-metro-santa-isabel-_JM#position=21&search_layout=grid&type=item&tracking_id=ae078f09-9f02-426a-a7a3-c76c48996a6a
San Diego, Santiago, RM (Metropolitana)|3793|46|2|2|-33.4503|-70.6502|https://www.portalinmobiliario.com/MLC-1464266635-departamento-nuevo-descuento-irrepetible-_JM#position=30&search_layout=grid&type=item&tracking_id=31dba42f-d1f5-4994-b25d-c82b3973d5dd
Bulnes, Santiago, RM (Metropolitana)|3897|86|2|2|-33.449495|-70.651795|https://www.portalinmobiliario.com/MLC-2326965260-2-departamentos-en-venta-al-precio-de-1-santiago-_JM#position=44&search_layout=grid&type=item&tracking_id=98d86d59-1cf9-435d-bf9f-4b9f369b3137
Chacabuco 1355, Parque Los Reyes, Santiago, RM (Metropolitana)|3623|39|2|2|-33.429607|-70.679619|https://www.portalinmobiliario.com/MLC-1472831689-edificio-chacabuco-1-est-vista-surponiente-piso-3-_JM#position=2&search_layout=grid&type=item&tracking_id=101a90e7-e1a4-4b22-a237-fd30b843ae5b
San Diego, Parque O'Higgins, Santiago, RM (Metropolitana)|1478|35|2|1|-33.4652784|-70.6490192|https://www.portalinmobiliario.com/MLC-2221722898-departamento-san-diego-id-119068-_JM#position=9&search_layout=grid&type=item&tracking_id=c387fd51-ec6e-4a4e-9857-2b3350d793a3
Portugal / Coquimbo, Barrio Diez de Julio, Santiago, RM (Metropolitana)|2100|40|1|1|-33.4545741|-70.6339027|https://www.portalinmobiliario.com/MLC-1470399245-oferta-departamento-en-venta-en-santiago-_JM#position=21&search_layout=grid&type=item&tracking_id=f04286ff-65e1-4cdb-bcf5-23b1c42ef423
Carmen / Sta. Isabel, Santa Isabel, Santiago, RM (Metropolitana)|3400|62|2|2|-33.4506883|-70.641523|https://www.portalinmobiliario.com/MLC-1470639327-departamento-en-venta-de-2-dorm-en-santiago-_JM#position=10&search_layout=grid&type=item&tracking_id=5f3427cd-b8da-4a35-aa22-08f3211398f4
Hermoso  Departamento Conectado, San Diego, Santiago, RM (Metropolitana)|2661|76|3|2|-33.4532677|-70.6500291|https://www.portalinmobiliario.com/MLC-1475474643-hermoso-departamento-conectado-8635-_JM#position=29&search_layout=grid&type=item&tracking_id=19c2411a-352c-4da1-8518-8ed69b0a4822
General Gana 1063 Departamento, Franklin - Biobío, Santiago, RM (Metropolitana)|2250|35|1|1|-33.4708385|-70.648097|https://www.portalinmobiliario.com/MLC-2117673928-departamento-general-gana-1063-departamento-id-91383-_JM#position=4&search_layout=grid&type=item&tracking_id=14e0d470-229c-4585-a472-1cb8dec6b125
Precioso Depto Manuel Rodríguez Norte 83 Santiago, Centro Histórico de Santiago, Santiago, RM (Metropolitana)|2715|43|2|1|-33.443173|-70.6599176|https://www.portalinmobiliario.com/MLC-2303320570-precioso-depto-manuel-rodriguez-norte-83-santiago-_JM#position=29&search_layout=grid&type=item&tracking_id=bd9e874a-566e-485f-93cd-a1c587410e63
Agustinas 1612, Santiago, Chile, Centro Histórico de Santiago, Santiago, RM (Metropolitana)|3450|74|2|2|-33.4419532|-70.659432|https://www.portalinmobiliario.com/MLC-2380119364-excelente-dpto-para-inversion-cod-2310-_JM#position=39&search_layout=grid&type=item&tracking_id=958c33f1-abd7-48a3-9d06-660520505b9d
Mac Iver/ Huérfanos, Centro Histórico de Santiago, Santiago, RM (Metropolitana)|2204|57|2|1|-33.4396497|-70.6466476|https://www.portalinmobiliario.com/MLC-1466817279-departamento-en-venta-de-2-dorm-en-santiago-_JM#position=9&search_layout=grid&type=item&tracking_id=06e9d37c-e4c7-42cc-8f32-41c52f1a460f
Rosas 1339, Santiago, Chile, Centro Histórico de Santiago, Santiago, RM (Metropolitana)|3090|44|2|1|-33.4355585|-70.6564792|https://www.portalinmobiliario.com/MLC-2281972878-inversionistas-dpto-en-venta-con-arrendatario-stgo-centro-_JM#position=26&search_layout=grid&type=item&tracking_id=4d43185c-3bd9-4eb9-9ecb-e8325d08f967
Centro Histórico de Santiago, Santiago, RM (Metropolitana)|2500|37|1|1|-33.437469|-70.646199|https://www.portalinmobiliario.com/MLC-1446518853-departamento-1d1b-en-el-centro-_JM#position=16&search_layout=grid&type=item&tracking_id=139930be-c85f-41a0-af1f-a7c904327274
Santa Victoria - Santiago, Santa Isabel, Santiago, RM (Metropolitana)|3000|70|2|2|-33.4478629|-70.6381078|https://www.portalinmobiliario.com/MLC-2198561116-santa-victoria-santiago-10321-_JM#position=47&search_layout=grid&type=item&tracking_id=5f3427cd-b8da-4a35-aa22-08f3211398f4
Avenida Libertador Bernardo O'higgins, Centro Histórico de Santiago, Santiago, RM (Metropolitana)|1630|36|1|1|-33.442567|-70.6465419|https://www.portalinmobiliario.com/MLC-2117622200-departamento-avenida-libertador-bernardo-ohiggins-id-74895-_JM#position=6&search_layout=grid&type=item&tracking_id=cf516be5-79cc-42a9-9e55-a6a546ba85e4
Fray Camilo Henríquez, Barrio Diez de Julio, Santiago, RM (Metropolitana)|3348|50|2|2|-33.4511456|-70.6332743|https://www.portalinmobiliario.com/MLC-1454782793-departamento-fray-camilo-henriquez-id-30319-_JM#position=33&search_layout=grid&type=item&tracking_id=860b5343-80ff-4fb0-8114-58a9f2a757f3
Agustinas 1500 - 1800, Santiago, Chile, Centro Histórico de Santiago, Santiago, RM (Metropolitana)|2350|35|1|1|-33.4418992|-70.6593825|https://www.portalinmobiliario.com/MLC-2339408638-oportunidad-de-invension-apasos-metro-sta-ana-_JM#position=38&search_layout=grid&type=item&tracking_id=8c555f80-a5b5-4edc-a367-4bf34d2a90d0
San Isidro 951, Santiago, Chile, Barrio Diez de Julio, Santiago, RM (Metropolitana)|2742|60|3|1|-33.4559647|-70.6418968|https://www.portalinmobiliario.com/MLC-2098166510-se-vende-lindo-departamento-a-pasos-del-metro-matta-_JM#position=37&search_layout=grid&type=item&tracking_id=69bec6bd-6a7c-4f18-b658-5ec9b236d1c1
José Miguel De La Barra 508, Santiago, Chile, Centro Histórico de Santiago, Santiago, RM (Metropolitana)|3490|67|2|1|-33.4363799|-70.6437145|https://www.portalinmobiliario.com/MLC-2322867204-oferta-departamento-en-venta-de-2-dorm-en-santiago-_JM#position=36&search_layout=grid&type=item&tracking_id=7900a9c9-244b-4ff1-ba24-2c2435fc25cf
García Reyes 30, Santiago, Chile, Barrio Yungay, Santiago, RM (Metropolitana)|2000|40|1|1|-33.4468826|-70.6707479|https://www.portalinmobiliario.com/MLC-2170573414-hermoso-vista-despejada-_JM#position=7&search_layout=grid&type=item&tracking_id=5575e832-fec4-4dea-ac39-565149c89577
Presidente Balmaceda- Esperanza, Parque Los Reyes, Santiago, RM (Metropolitana)|1075|20|1|1|-33.4270391|-70.6771933|https://www.portalinmobiliario.com/MLC-2158909352-departamento-home-studio-en-venta-de-1-dorm-en-santiago-_JM#position=6&search_layout=grid&type=item&tracking_id=4c07cd07-fca8-4332-b038-41038ab571cb
Monjitas Con Enrique Mac Iver, Centro Histórico de Santiago, Santiago, RM (Metropolitana)|3100|52|2|2|-33.4370537|-70.6478646|https://www.portalinmobiliario.com/MLC-1452045005-departamento-en-venta-de-2-dorm-en-santiago-_JM#position=8&search_layout=grid&type=item&tracking_id=31680df8-d52e-42f4-8a30-8222d1c902d6
Avenida Rondizzoni, 1856, Parque O'Higgins, Santiago, RM (Metropolitana)|2365|68|2|2|-33.4704206|-70.6591765|https://www.portalinmobiliario.com/MLC-2371393394-venta-departamento-2hab-2ba-avenida-rondizzoni-1856-_JM#position=12&search_layout=grid&type=item&tracking_id=92e60104-7d52-460c-8ad7-967871aeb542
Metro Rondizzoni / Ñuble, Franklin - Biobío, Santiago, RM (Metropolitana)|1350|20|1|1|-33.4704984|-70.6483867|https://www.portalinmobiliario.com/MLC-2117725266-departamento-metro-rondizzoni-nuble-id-77167-_JM#position=22&search_layout=grid&type=item&tracking_id=53c24ed8-8154-483a-b32b-25ed7ae1a889
Eyzaguirre, Parque O'Higgins, Santiago, RM (Metropolitana)|1750|29|1|1|-33.4612539|-70.6514485|https://www.portalinmobiliario.com/MLC-1437366191-venta-departamento-santiago-de-1-dormitorio-_JM#position=11&search_layout=grid&type=item&tracking_id=b724bf96-7df1-4fb5-85b5-dc888222771b
Metro Santa Lucia, Santa Isabel, Santiago, RM (Metropolitana)|2600|34|1|1|-33.44269|-70.64572|https://www.portalinmobiliario.com/MLC-1440639475-departamento-en-venta-de-1-dorm-en-santiago-_JM#position=11&search_layout=grid&type=item&tracking_id=82a0818c-1951-4b03-b9db-83a3ee71356a
Argomedo 40, 8330318 Santiago, Región Metropolitana, Chile, Santa Isabel, Santiago, RM (Metropolitana)|3000|45|2|1|-33.4492762|-70.6324584|https://www.portalinmobiliario.com/MLC-1467811861-departamento-2-dormitorios-barrio-italia-metro-santa-isabel-_JM#position=47&search_layout=grid&type=item&tracking_id=bf05e5af-deb4-41cf-b5df-07ca4ec4e24d
Departamento En Arriendo 1 Dormitorio Y 1 Baño. Arturo Prat 655. Metro Parque Almagro. Comuna De Santiago., San Diego, Santiago, RM (Metropolitana)|2900|31|1|1|-33.4532512|-70.6485811|https://www.portalinmobiliario.com/MLC-2124462052-departamento-en-venta-de-1-dorm-en-santiago-_JM#position=24&search_layout=grid&type=item&tracking_id=19c2411a-352c-4da1-8518-8ed69b0a4822
Se Vende Dp 2d+1b Con Opción A Estacionamiento, Santiago, Centro Histórico de Santiago, Santiago, RM (Metropolitana)|2690|43|2|1|-33.4359494|-70.6593274|https://www.portalinmobiliario.com/MLC-2374874356-se-vende-dp-2d1b-con-opcion-a-estacionamiento-santiago-_JM#position=34&search_layout=grid&type=item&tracking_id=cac34015-82c8-48da-84ce-baa4479e3461
Manuel Antonio Tocornal 455, Santiago, Chile, Santa Isabel, Santiago, RM (Metropolitana)|2100|37|1|1|-33.4488927|-70.6407097|https://www.portalinmobiliario.com/MLC-2174977610-oportunidad-amoblado-inversionista-mt-sta-luciaclinica-uc-_JM#position=15&search_layout=grid&type=item&tracking_id=1ea50ae8-cf68-41d7-8be0-18e64d4a743f
Santa Lucía/ Merced, Centro Histórico de Santiago, Santiago, RM (Metropolitana)|4850|85|3|2|-33.4374718|-70.6444255|https://www.portalinmobiliario.com/MLC-2375273752-lastarria-metro-santa-lucia-3d-2b-_JM#position=41&search_layout=grid&type=item&tracking_id=060baa90-8b2b-435c-8bd4-78d129392cd3
Avenida Almirante Blanco Encalada 1797, Santiago, Chile, Ejército - Toesca, Santiago, RM (Metropolitana)|4945|92|3|2|-33.4564267|-70.6594543|https://www.portalinmobiliario.com/MLC-1453079037-amplio-y-hermoso-departamento-3d-2b-1e-santiago-_JM#position=30&search_layout=grid&type=item&tracking_id=87232290-ac01-41e0-9258-bb82b93ea661
Santo Domingo 1364, Santiago, Chile, Centro Histórico de Santiago, Santiago, RM (Metropolitana)|1881|33|1|1|-33.4368237|-70.6564494|https://www.portalinmobiliario.com/MLC-1477017135-hermoso-remodelado-_JM#position=43&search_layout=grid&type=item&tracking_id=94019c35-55f3-434e-8982-8336f48c2228
Zenteno, Parque Almagro, Santiago, RM (Metropolitana)|1880|40|2|1|-33.4576862|-70.6510101|https://www.portalinmobiliario.com/MLC-2240596808-departamento-zenteno-id-100273-_JM#position=7&search_layout=grid&type=item&tracking_id=feed9058-fd81-49fc-b95e-4ff3f7520f6a
Departamento En Venta De 2 Dorm. En Santiago, Parque O'Higgins, Santiago, RM (Metropolitana)|2200|40|2|1|-33.465958|-70.6490745|https://www.portalinmobiliario.com/MLC-1452315223-departamento-en-venta-de-2-dorm-en-santiago-_JM#position=37&search_layout=grid&type=item&tracking_id=3121f85d-535d-45e2-805e-a650afc0f2b2
Cóndor 1170, Santiago, Chile, Parque Almagro, Santiago, RM (Metropolitana)|1747|40|1|1|-33.4508489|-70.6516282|https://www.portalinmobiliario.com/MLC-1433500021-lindo-dpto-en-avsan-diego-metro-parque-almagro-_JM#position=33&search_layout=grid&type=item&tracking_id=ccb1f7be-333a-41ae-a4ed-4846f99c10f7
Rosas, Barrio Yungay, Santiago, RM (Metropolitana)|2500|48|2|2|-33.4366689|-70.6726577|https://www.portalinmobiliario.com/MLC-2117725204-departamento-rosas-id-27786-_JM#position=22&search_layout=grid&type=item&tracking_id=633394a1-3e6d-4422-9190-7d8676bf0a16
Barrio Yungay, Barrio Yungay, Santiago, RM (Metropolitana)|3575|81|3|2|-33.4420718|-70.6701625|https://www.portalinmobiliario.com/MLC-2260191430-departamento-en-venta-de-3d-2b-en-barrio-yungay-santiago-_JM#position=31&search_layout=grid&type=item&tracking_id=28182483-46bd-4b78-b26d-8f3e955d1a32
San Francisco 294, Bulnes, Santiago, RM (Metropolitana)|2250|25|1|1|-33.448277|-70.646782|https://www.portalinmobiliario.com/MLC-1439446189-edificio-san-francisco-vista-poniente-piso-22-_JM#position=1&search_layout=grid&type=item&tracking_id=5991b0a2-9c87-4b6d-a62d-b9638dc74856
Enrique Mac Iver, 300 - 600, Centro Histórico de Santiago, Santiago, RM (Metropolitana)|1747|35|1|1|-33.4386219|-70.6473041|https://www.portalinmobiliario.com/MLC-1456952919-amplio-y-antiguo-con-ascensor-m-bellas-artes-_JM#position=10&search_layout=grid&type=item&tracking_id=70171495-6ecf-41cc-9b60-37e09ca4a4d2
Avenida Vicuña Mackenna 933, Santiago, Ñuñoa, Chile, Barrio Diez de Julio, Santiago, RM (Metropolitana)|1950|31|1|1|-33.4537637|-70.6309705|https://www.portalinmobiliario.com/MLC-2381884128-venta-departamento-1-dormitorio-1-bano-metro-irarrazaval-_JM#position=46&search_layout=grid&type=item&tracking_id=0c74d70a-9da3-4212-af63-f5a99a627245
Avenida España 106, Santiago, Chile, Barrio República, Santiago, RM (Metropolitana)|3000|70|3|2|-33.4504657|-70.6696896|https://www.portalinmobiliario.com/MLC-2155383542-oportunidad-unica-venta-de-propiedad-en-av-espana-106-_JM#position=48&search_layout=grid&type=item&tracking_id=00c1dc4f-c55a-480c-aac4-7759a2d54f8a
Parque Almagro, Iglesia Los Sacarmentinos, San Diego, San Diego, Santiago, RM (Metropolitana)|1990|33|1|1|-33.4500115|-70.6493301|https://www.portalinmobiliario.com/MLC-2371376160-departamento-en-venta-de-1-dorm-en-santiago-_JM#position=25&search_layout=grid&type=item&tracking_id=f96ba0b0-3de0-4104-8e3c-5e6c8dd0cf46
Amunategui Y General Mackenna, Centro Histórico de Santiago, Santiago, RM (Metropolitana)|2650|63|2|2|-33.4332638|-70.6574523|https://www.portalinmobiliario.com/MLC-2378549516-departamento-en-venta-de-2-dorm-en-santiago-_JM#position=36&search_layout=grid&type=item&tracking_id=958c33f1-abd7-48a3-9d06-660520505b9d
Raulí, Santa Isabel, Santiago, RM (Metropolitana)|2800|47|2|1|-33.4496342|-70.6364344|https://www.portalinmobiliario.com/MLC-2374839118-departamento-rauli-id-125693-_JM#position=29&search_layout=grid&type=item&tracking_id=6e3b6d58-9d4d-4192-9f0c-0de757ab7d35
San Martín / Compañía De Jesús, Centro Histórico de Santiago, Santiago, RM (Metropolitana)|2687|54|2|2|-33.4389456|-70.6580143|https://www.portalinmobiliario.com/MLC-2271984352-venta-departamento-santiago-san-martin-2-dormitorios-_JM#position=30&search_layout=grid&type=item&tracking_id=e2e8c48d-6a91-468a-82a9-3a69cd776ba6
Sazie/jose Miguel Carrera, Ejército - Toesca, Santiago, RM (Metropolitana)|1998|39|1|1|-33.450221|-70.6638173|https://www.portalinmobiliario.com/MLC-2276183072-departamento-en-venta-1-dormitorio-en-santiago-sazie-j-carre-_JM#position=17&search_layout=grid&type=item&tracking_id=14e0d470-229c-4585-a472-1cb8dec6b125
Vergara, Ejército - Toesca, Santiago, RM (Metropolitana)|3321|32|1|1|-33.4556214|-70.6614021|https://www.portalinmobiliario.com/MLC-2314240950-departamento-en-venta-en-santiago-_JM#position=35&search_layout=grid&type=item&tracking_id=242369c3-e4f3-4302-8812-fc2d99a49ef1
Parque Almagro, Santiago, RM (Metropolitana)|2300|36|2|1|-33.4573405|-70.6554794|https://www.portalinmobiliario.com/MLC-2065773146-comodo-departamento-2d-1b-en-sector-parque-ohiggings-_JM#position=6&search_layout=grid&type=item&tracking_id=ad89b61c-35d9-4370-9a9f-5c52e7f12fa2
Barrio República, Santiago, RM (Metropolitana)|4484|67|2|2|-33.448889|-70.669265|https://www.portalinmobiliario.com/MLC-2370009094-venta-depto-nuevo-en-barrio-franklin-san-diego-_JM#position=11&search_layout=grid&type=item&tracking_id=dd4f2cbc-ac44-49e7-a344-ceee4576a4c8
San Diego, Parque O'Higgins, Santiago, RM (Metropolitana)|1450|21|1|1|-33.4609864|-70.6490517|https://www.portalinmobiliario.com/MLC-2193653242-departamento-san-diego-id-85452-_JM#position=38&search_layout=grid&type=item&tracking_id=319a118d-4a66-464a-abf2-7887ae2971a1
Romero, Impecable Est Y Bod, Barrio Yungay, Santiago, RM (Metropolitana)|4600|64|3|2|-33.4467623|-70.6692557|https://www.portalinmobiliario.com/MLC-1470723223-romero-impecable-est-y-bod-_JM#position=46&search_layout=grid&type=item&tracking_id=67659ac7-5865-4e7f-a9e2-d9047a6d9a6d
Quito 1 - 300, Santiago, Chile, Barrio San Borja, Santiago, RM (Metropolitana)|3500|80|2|2|-33.4423248|-70.6421157|https://www.portalinmobiliario.com/MLC-1470520051-metro-uc-calle-quito-_JM#position=34&search_layout=grid&type=item&tracking_id=5591f879-676e-4656-aacd-4c634b94f5b8
Departamento Venta 1 Dormitorio/ Amoblado En Santiago, Bulnes, Santiago, RM (Metropolitana)|1900|27|1|1|-33.4497224|-70.6531208|https://www.portalinmobiliario.com/MLC-1473407977-departamento-venta-1-dormitorio-amoblado-en-santiago-_JM#position=47&search_layout=grid&type=item&tracking_id=028e1403-868e-4d2f-ba9a-cb1e2d4c4752
Serrano Con Santa Isabel, San Diego, Santiago, RM (Metropolitana)|2557|45|2|2|-33.4524724|-70.6479555|https://www.portalinmobiliario.com/MLC-1445613305-oportunidad-2-dorm-con-buena-ubicacion-y-conectividad-_JM#position=37&search_layout=grid&type=item&tracking_id=13777f65-dacc-4b37-b57f-c538378a588b
Marín 300 - 600, Santiago, Chile, Santa Isabel, Santiago, RM (Metropolitana)|3080|74|3|2|-33.4473336|-70.6390135|https://www.portalinmobiliario.com/MLC-1476447429-se-vende-3-dormitorios-2-banos-centrica-ubicacion-santiago-_JM#position=31&search_layout=grid&type=item&tracking_id=5ef4a849-834b-426c-ba16-8715400ccaab
Morandé, Centro Histórico de Santiago, Santiago, RM (Metropolitana)|3494|70|3|2|-33.4363182|-70.6542768|https://www.portalinmobiliario.com/MLC-2117622446-departamento-morande-id-61908-_JM#position=10&search_layout=grid&type=item&tracking_id=9edf42cc-b6d9-4871-ad16-be4d2119ff26
Catedral / Teatinos, Centro Histórico de Santiago, Santiago, RM (Metropolitana)|2400|34|1|1|-33.4381951|-70.6570441|https://www.portalinmobiliario.com/MLC-2100926930-departamento-en-venta-en-santiago-_JM#position=35&search_layout=grid&type=item&tracking_id=66bc2cea-04f4-46ec-af43-44861db2ec3d
Catedral 1394, Santiago, Chile, Centro Histórico de Santiago, Santiago, RM (Metropolitana)|3763|69|3|2|-33.4379328|-70.6567987|https://www.portalinmobiliario.com/MLC-2117180798-departamento-en-venta-pleno-centro-de-santiago-_JM#position=47&search_layout=grid&type=item&tracking_id=0ca39672-0ea5-4efa-9c9d-25851a13f3de
Santo Domingo/ Teatinos, Centro Histórico de Santiago, Santiago, RM (Metropolitana)|2400|37|1|1|-33.4368148|-70.6548582|https://www.portalinmobiliario.com/MLC-1441003675-venta-departamento-santiago-plaza-de-armas-1-dormitorio-_JM#position=41&search_layout=grid&type=item&tracking_id=82a0818c-1951-4b03-b9db-83a3ee71356a
Moneda 2264, Santiago, Chile, Barrio Brasil, Santiago, RM (Metropolitana)|4031|70|3|2|-33.4437778|-70.6673814|https://www.portalinmobiliario.com/MLC-2322809734-depto-amplio-a-pocas-cuadras-de-metro-republica-y-cumming-_JM#position=4&search_layout=grid&type=item&tracking_id=3c68a156-359e-45e6-8ef2-690f1500b577
Curicó / Diagonal Paraguay  2 Dor, Santa Isabel, Santiago, RM (Metropolitana)|3650|42|2|1|-33.4445103|-70.6403147|https://www.portalinmobiliario.com/MLC-2117686894-departamento-curico-diagonal-paraguay-2-dor-id-83045-_JM#position=17&search_layout=grid&type=item&tracking_id=52c66a21-3a5f-4481-aa8b-cc047b745c78
Angamos, Santa Isabel, Santiago, RM (Metropolitana)|2015|38|1|1|-33.4462232|-70.6388685|https://www.portalinmobiliario.com/MLC-1459706601-departamento-angamos-id-120881-_JM#position=1&search_layout=grid&type=item&tracking_id=b61a227c-11e1-43a5-8f75-1d77877e37d2
Avenida Ricardo Cumming 1350, Santiago, Chile, Parque Los Reyes, Santiago, RM (Metropolitana)|1639|34|1|1|-33.429434|-70.6696358|https://www.portalinmobiliario.com/MLC-2276054384-depto-piso-9-vista-despejada-con-bodega-_JM#position=39&search_layout=grid&type=item&tracking_id=a98e79ca-dc2b-4ac9-bc8f-48ab6449071e
Padre Alonso De Ovalle 884, Santiago, Chile, Bulnes, Santiago, RM (Metropolitana)|2790|35|1|1|-33.4459559|-70.6488099|https://www.portalinmobiliario.com/MLC-2380365102-se-vende-espectacular-depto-con-estacionamiento-_JM#position=13&search_layout=grid&type=item&tracking_id=d58f037f-94af-43e1-a616-1ad8477c5a2a
San Martin 1490, Centro Histórico de Santiago, Santiago, RM (Metropolitana)|2700|40|1|1|-33.4317056|-70.6589815|https://www.portalinmobiliario.com/MLC-1451731429-departamento-en-venta-1d-1b-estacionamiento-y-bodega-_JM#position=43&search_layout=grid&type=item&tracking_id=bbc2987f-5e46-4725-94b0-5c392ab02fd9
Av. Portugal 810, Santiago, Chile, Barrio Diez de Julio, Santiago, RM (Metropolitana)|2990|62|2|2|-33.4528418|-70.6339946|https://www.portalinmobiliario.com/MLC-2298026716-av-portugal-copiapo-_JM#position=23&search_layout=grid&type=item&tracking_id=9ec44c88-b33f-4be0-8f6e-6ec08935bd26
Manuel Antonio Tocornal, Santa Isabel, Santiago, RM (Metropolitana)|3050|53|2|2|-33.4503694|-70.6398562|https://www.portalinmobiliario.com/MLC-2069082942-departamento-manuel-antonio-tocornal-id-38880-_JM#position=29&search_layout=grid&type=item&tracking_id=696cc160-a6d3-4dac-b97e-d61f40b18e11
Angamos, Santa Isabel, Santiago, RM (Metropolitana)|2015|38|1|1|-33.4462232|-70.6388685|https://www.portalinmobiliario.com/MLC-1459706601-departamento-angamos-id-120881-_JM#position=14&search_layout=grid&type=item&tracking_id=2f69ac8f-a00c-437f-b1b8-df202a04db5c
Metro Santa Isabel, Est, Vista Oriente!, Santa Isabel, Santiago, RM (Metropolitana)|2800|32|1|1|-33.4481034|-70.6322896|https://www.portalinmobiliario.com/MLC-2322865688-metro-santa-isabel-est-vista-oriente-_JM#position=47&search_layout=grid&type=item&tracking_id=d50bcaf6-3b54-4598-affe-0fc55aa81089
Merced 562, Centro Histórico de Santiago, Santiago, RM (Metropolitana)|3220|40|1|1|-33.437981|-70.644974|https://www.portalinmobiliario.com/MLC-2374811076-edificio-merced-vista-norte-piso-16-_JM#position=32&search_layout=grid&type=item&tracking_id=4d43185c-3bd9-4eb9-9ecb-e8325d08f967
Lord Cochrane 200 - 400, Parque Almagro, Santiago, RM (Metropolitana)|2850|49|2|2|-33.4508723|-70.6542744|https://www.portalinmobiliario.com/MLC-1443076345-mariposa-excelente-ubicacion-santiago-_JM#position=42&search_layout=grid&type=item&tracking_id=7e67677d-67e7-455f-9c49-9965ef8a9c64
San Ignacio 1481, Santiago, Chile, Parque O'Higgins, Santiago, RM (Metropolitana)|1390|22|1|1|-33.4663335|-70.6551186|https://www.portalinmobiliario.com/MLC-1476466247-departamento-home-estudio-gran-oportunidad-de-inversion-_JM#position=38&search_layout=grid&type=item&tracking_id=67e6b74e-2e3d-452a-96a0-4e68d9a1f502
Av. Manuel Rodríguez 881, Centro Histórico de Santiago, Santiago, RM (Metropolitana)|2100|30|1|1|-33.433426|-70.660057|https://www.portalinmobiliario.com/MLC-1437573765-edificio-av-manuel-rodriguez-piso-17-_JM#position=20&search_layout=grid&type=item&tracking_id=f3b094a8-3709-44e2-afc6-41c479c85c79
Vergara 699, Santiago, Chile, Ejército - Toesca, Santiago, RM (Metropolitana)|3225|52|2|2|-33.4555255|-70.6612795|https://www.portalinmobiliario.com/MLC-1475356071-amplisimo-el-mejor-barrio-del-centro-_JM#position=23&search_layout=grid&type=item&tracking_id=242369c3-e4f3-4302-8812-fc2d99a49ef1
Catedral 1200 - 1500, Santiago, Chile, Centro Histórico de Santiago, Santiago, RM (Metropolitana)|1400|19|1|1|-33.4376544|-70.6553689|https://www.portalinmobiliario.com/MLC-1432236313-oportunidad-de-inversion-santiago-centro-_JM#position=6&search_layout=grid&type=item&tracking_id=ecdb45d2-9a53-4d84-9596-557b47614778
Lord Cochrane 1200 - 1500, Santiago, Chile, Parque O'Higgins, Santiago, RM (Metropolitana)|1280|35|1|1|-33.465072|-70.652978|https://www.portalinmobiliario.com/MLC-1477103335-venta-departamento-1-dormitorio-1-banolord-cochrane-stgo-_JM#position=24&search_layout=grid&type=item&tracking_id=897e07f3-c4af-4cb8-ad87-1246ad58dcf0
Bellas Artes, Centro Histórico de Santiago, Santiago, RM (Metropolitana)|2670|49|1|1|-33.4387424|-70.644776|https://www.portalinmobiliario.com/MLC-1469977691-departamento-duplex-en-venta-de-1-dorm-en-santiago-_JM#position=7&search_layout=grid&type=item&tracking_id=bd9e874a-566e-485f-93cd-a1c587410e63
Metro Irarrazaval Est Vista Despejada, Barrio Diez de Julio, Santiago, RM (Metropolitana)|2599|52|2|2|-33.4532479|-70.6309384|https://www.portalinmobiliario.com/MLC-1474986439-metro-irarrazaval-est-vista-despejada-_JM#position=17&search_layout=grid&type=item&tracking_id=5090c801-a348-4ef4-897e-65f0e260d8b6
San Francisco 294, Bulnes, Santiago, RM (Metropolitana)|1630|27|1|1|-33.4482259|-70.6468927|https://www.portalinmobiliario.com/MLC-2274898184-departamento-en-venta-de-1-dorm-en-santiago-_JM#position=18&search_layout=grid&type=item&tracking_id=5d04377c-6937-4a26-8154-fb26f02add0f
Eleuterio Ramirez Con San Francisco, Bulnes, Santiago, RM (Metropolitana)|2300|35|1|1|-33.4483591|-70.6471555|https://www.portalinmobiliario.com/MLC-1463535689-oportunidad-departamento-en-venta-de-1-dorm-en-santiago-_JM#position=11&search_layout=grid&type=item&tracking_id=3029b441-1c74-48ca-88eb-caf6ddcbd5a9
Fray Camilo Henríquez 300 - 600, Santiago, Chile, Santa Isabel, Santiago, RM (Metropolitana)|1550|32|1|1|-33.4473752|-70.6345019|https://www.portalinmobiliario.com/MLC-2253605722-fray-camilo-henriquez-santa-isabel-55-rentabilidad-_JM#position=16&search_layout=grid&type=item&tracking_id=162b65d3-5ff2-4403-98f6-2babfe1e82fe
Maturana 1 - 300, Santiago, Chile, Barrio Brasil, Santiago, RM (Metropolitana)|3660|75|3|2|-33.4431868|-70.6664524|https://www.portalinmobiliario.com/MLC-2310994736-parque-agustinas-barrio-brasil-_JM#position=27&search_layout=grid&type=item&tracking_id=eb609bb0-7d42-4cfe-86bb-e04898ff9373
Miraflores 455, Centro Histórico de Santiago, Santiago, RM (Metropolitana)|2166|35|1|1|-33.4380331|-70.6455816|https://www.portalinmobiliario.com/MLC-2383554496-arayabroker-vende-precioso-departamento-en-santiago-centro-_JM#position=28&search_layout=grid&type=item&tracking_id=63c47a80-3763-4db2-a1b3-817ccd1539f1
Carmen / Santa Isabel, Santa Isabel, Santiago, RM (Metropolitana)|1962|49|2|1|-33.4508787|-70.6409355|https://www.portalinmobiliario.com/MLC-1442174725-carmen-santa-isabel-_JM#position=28&search_layout=grid&type=item&tracking_id=d50bcaf6-3b54-4598-affe-0fc55aa81089
Avenida Santa Rosa 1 - 300, Santiago, Chile, Bulnes, Santiago, RM (Metropolitana)|2470|65|3|2|-33.44583|-70.6455898|https://www.portalinmobiliario.com/MLC-2324410518-oportunidad-con-estacionamiento-y-a-pasos-metro-_JM#position=36&search_layout=grid&type=item&tracking_id=fb85d8b0-a7af-4fab-a9d2-928a311da63e
San Diego, Parque O'Higgins, Santiago, RM (Metropolitana)|2300|40|2|1|-33.4652963|-70.648944|https://www.portalinmobiliario.com/MLC-1469296233-departamento-san-diego-id-55110-_JM#position=22&search_layout=grid&type=item&tracking_id=b2ec1abd-3dbc-4307-84f4-db2442c167f8
San Diego 1473, Parque O'Higgins, Santiago, RM (Metropolitana)|2000|0|2|1|-33.465248|-70.648949|https://www.portalinmobiliario.com/MLC-1437598129-edificio-san-diego-piso-12-_JM#position=38&search_layout=grid&type=item&tracking_id=b2ec1abd-3dbc-4307-84f4-db2442c167f8
Vicuña Mackenna 1231, Ñuñoa, Santiago, Chile, Bogotá - Sierra Bella, Santiago, RM (Metropolitana)|1430|20|1|1|-33.457366|-70.6295542|https://www.portalinmobiliario.com/MLC-1474969637-comodo-estudio-con-lavadora-metro-l3-y-l5-_JM#position=39&search_layout=grid&type=item&tracking_id=0770310a-699f-4ed7-93b8-99c88ca2db6e
Plaza De Armas, Centro Histórico de Santiago, Santiago, RM (Metropolitana)|1980|61|1|1|-33.4385673|-70.6503743|https://www.portalinmobiliario.com/MLC-2109840692-departamento-en-venta-de-1-dorm-en-santiago-_JM#position=48&search_layout=grid&type=item&tracking_id=702cf2da-f4c2-4d0e-bdbd-db67b33318f6
Barrio Brasil, Barrio Brasil, Santiago, RM (Metropolitana)|3700|101|4|2|-33.4415753|-70.663804|https://www.portalinmobiliario.com/MLC-2271215238-barrio-brasil-_JM#position=37&search_layout=grid&type=item&tracking_id=4a51204c-365c-4ce5-babb-b938692704ae
Tarapacá 1200 - 1500, Santiago, Chile, Bulnes, Santiago, RM (Metropolitana)|1900|40|1|1|-33.4476764|-70.6538842|https://www.portalinmobiliario.com/MLC-2279453858-se-vende-dpto-en-comuna-de-santiago-_JM#position=36&search_layout=grid&type=item&tracking_id=5991b0a2-9c87-4b6d-a62d-b9638dc74856
San Isidro Est Y Bod Impecable, Santa Isabel, Santiago, RM (Metropolitana)|2900|50|2|2|-33.44811|-70.6436072|https://www.portalinmobiliario.com/MLC-1445626147-san-isidro-est-y-bod-impecable-_JM#position=7&search_layout=grid&type=item&tracking_id=cf3f9c9b-80d4-4ba6-8d76-38fcbbfa7258
"Lira | Departamento En Venta (2d 2b) | Santiago | One Propiedades, Santa Isabel, Santiago, RM (Metropolitana)"|3800|60|2|2|-33.4498475|-70.6385127|https://www.portalinmobiliario.com/MLC-2083745160-departamento-en-venta-de-2-dorm-en-santiago-_JM#position=5&search_layout=grid&type=item&tracking_id=11d863d4-fae8-48a8-b5b9-dd18472c5224
Venta De Departamento Ubicado En Chacabuco, Parque Los Reyes, Santiago, RM (Metropolitana)|2800|52|3|2|-33.4320698|-70.6793053|https://www.portalinmobiliario.com/MLC-2383660678-venta-de-departamento-ubicado-en-chacabuco-23878-_JM#position=38&search_layout=grid&type=item&tracking_id=64df58f2-3ec4-45f4-8a50-e80c8a66a26a
San Pablo Esquina Teatinos, Centro Histórico de Santiago, Santiago, RM (Metropolitana)|1650|28|1|1|-33.4342077|-70.6561952|https://www.portalinmobiliario.com/MLC-2355079468-departamento-en-venta-de-1-dormitorio-en-santiago-_JM#position=46&search_layout=grid&type=item&tracking_id=060baa90-8b2b-435c-8bd4-78d129392cd3
Avenida Portugal 551, Santiago, Chile, Santa Isabel, Santiago, RM (Metropolitana)|2000|36|1|1|-33.4487999|-70.6353204|https://www.portalinmobiliario.com/MLC-1448883031-en-venta-acogedor-departamento-cercano-a-metro-santa-isabel-_JM#position=7&search_layout=grid&type=item&tracking_id=0cff10d3-ad9e-426c-8e39-0f3eaeb5a0f1
Eyzaguirre 766, San Diego, Santiago, RM (Metropolitana)|1700|20|1|1|-33.452236|-70.645889|https://www.portalinmobiliario.com/MLC-1437608763-edificio-eyzaguirre-vista-poniente-piso-12-_JM#position=12&search_layout=grid&type=item&tracking_id=13777f65-dacc-4b37-b57f-c538378a588b
Carmen (piso 16), Barrio Diez de Julio, Santiago, RM (Metropolitana)|2980|57|3|2|-33.4513265|-70.6407794|https://www.portalinmobiliario.com/MLC-1472837791-carmen-piso-16-_JM#position=31&search_layout=grid&type=item&tracking_id=5090c801-a348-4ef4-897e-65f0e260d8b6
San Isidro, Barrio Diez de Julio, Santiago, RM (Metropolitana)|1950|30|1|1|-33.4520413|-70.6426531|https://www.portalinmobiliario.com/MLC-2117699488-departamento-san-isidro-id-57529-_JM#position=35&search_layout=grid&type=item&tracking_id=9ec44c88-b33f-4be0-8f6e-6ec08935bd26
(fnb) Santa Elena Esquina Esquina Vicuña Mackenna, Bogotá - Sierra Bella, Santiago, RM (Metropolitana)|2750|39|1|1|-33.4602183|-70.6289544|https://www.portalinmobiliario.com/MLC-2242880188-departamento-en-venta-de-1-dorm-en-santiago-_JM#position=1&search_layout=grid&type=item&tracking_id=4a18d21b-0402-4b2f-b67f-ba6ae8f22203
San Diego 255, Bulnes, Santiago, RM (Metropolitana)|2100|31|1|1|-33.448502|-70.650963|https://www.portalinmobiliario.com/MLC-2107240714-edificio-san-diego-vista-oriente-piso-11-_JM#position=48&search_layout=grid&type=item&tracking_id=df1cd368-12f0-449b-8dfa-a60cad47a1e6
Gorbea, Barrio República, Santiago, RM (Metropolitana)|2300|44|2|1|-33.453933|-70.6716149|https://www.portalinmobiliario.com/MLC-1458285355-departamento-gorbea-id-120512-_JM#position=46&search_layout=grid&type=item&tracking_id=6e951999-8e82-47f7-8d86-0cebf6b5a687
Bandera 600 - 900, Santiago, Chile, Centro Histórico de Santiago, Santiago, RM (Metropolitana)|1690|31|1|1|-33.4332638|-70.6533075|https://www.portalinmobiliario.com/MLC-2193698144-espectacular-depto-remodelado-con-linda-vista-despejada-_JM#position=16&search_layout=grid&type=item&tracking_id=051b4ada-34bb-4aee-88b0-2b4f22f6e389
Chiloe, Parque O'Higgins, Santiago, RM (Metropolitana)|2687|55|2|1|-33.4660101|-70.6456539|https://www.portalinmobiliario.com/MLC-2131926516-departamento-chiloe-id-108686-_JM#position=10&search_layout=grid&type=item&tracking_id=c0ca3a4d-16e8-4b3e-a32c-ca17797820c3
Lira / Curicó - Ideal Para Inversión, Santa Isabel, Santiago, RM (Metropolitana)|2600|35|1|1|-33.445869|-70.6402195|https://www.portalinmobiliario.com/MLC-1441261325-departamento-en-venta-de-1-dorm-en-santiago-_JM#position=37&search_layout=grid&type=item&tracking_id=1ea50ae8-cf68-41d7-8be0-18e64d4a743f
Santo Domingo Con Teatinos, Centro Histórico de Santiago, Santiago, RM (Metropolitana)|2338|54|2|1|-33.4367649|-70.6548365|https://www.portalinmobiliario.com/MLC-2146218496-departamento-en-venta-de-2-dorm-en-santiago-_JM#position=41&search_layout=grid&type=item&tracking_id=4d43185c-3bd9-4eb9-9ecb-e8325d08f967
Avenida Presidente Balmaceda 2914, Santiago, Chile, Parque Los Reyes, Santiago, RM (Metropolitana)|1850|34|1|1|-33.4270391|-70.6771933|https://www.portalinmobiliario.com/MLC-2240582922-1-dorm-pdte-balmaceda-parque-de-la-familia-_JM#position=14&search_layout=grid&type=item&tracking_id=4c07cd07-fca8-4332-b038-41038ab571cb
Curico / Carmen, Santa Isabel, Santiago, RM (Metropolitana)|2500|41|2|1|-33.4454965|-70.6432889|https://www.portalinmobiliario.com/MLC-2117712762-departamento-curico-carmen-id-79518-_JM#position=27&search_layout=grid&type=item&tracking_id=f5a5c48c-379f-4bf6-92ea-caca240d87bd
Venta Depto 2d .. Lord Cochrane , Stgo, Bulnes, Santiago, RM (Metropolitana)|2270|45|2|1|-33.4493857|-70.6551569|https://www.portalinmobiliario.com/MLC-2377931272-venta-depto-2d-lord-cochrane-stgo-18155-_JM#position=41&search_layout=grid&type=item&tracking_id=5ab6efbd-9e95-404b-aebf-e4f9c54ab53d
San Diego 1344, Santiago, Chile, Parque O'Higgins, Santiago, RM (Metropolitana)|2290|41|2|1|-33.4629535|-70.6487813|https://www.portalinmobiliario.com/MLC-2167300882-2-dormitorios-1-bano-estac-metro-matta-l3-_JM#position=39&search_layout=grid&type=item&tracking_id=f96ba0b0-3de0-4104-8e3c-5e6c8dd0cf46
Rosas 1200 - 1500, Santiago, Chile, Centro Histórico de Santiago, Santiago, RM (Metropolitana)|3600|57|2|2|-33.4355956|-70.6563853|https://www.portalinmobiliario.com/MLC-1477322995-hermoso-departamento-centro-de-santiago-estilo-mariposa-_JM#position=19&search_layout=grid&type=item&tracking_id=639627b8-21bf-4ce6-8397-438f5bbf7f80
Lira 570, Santa Isabel, Santiago, RM (Metropolitana)|2401|0|1|1|-33.449902|-70.638786|https://www.portalinmobiliario.com/MLC-2311121836-edificio-lira-1-bod-piso-11-_JM#position=20&search_layout=grid&type=item&tracking_id=5de835be-8d08-4808-b8ad-98bffbb400d6
Merced 567, Centro Histórico de Santiago, Santiago, RM (Metropolitana)|2800|32|1|1|-33.4377637|-70.645097|https://www.portalinmobiliario.com/MLC-1451030019-bono-piedepartamento-amoblado-1-dormitorio-piso-17-_JM#position=47&search_layout=grid&type=item&tracking_id=eff58ecc-675e-49be-a2a3-432cd58f64a4
Pedro Lagos, 1118, Parque O'Higgins, Santiago, RM (Metropolitana)|2300|87|3|1|-33.466287|-70.648924|https://www.portalinmobiliario.com/MLC-1468746699-departamento-3-dormitorios-1-bano-rondizzoni-_JM#position=48&search_layout=grid&type=item&tracking_id=a9bfc503-6d66-41ac-9061-e01bb7879329
Lord Cochrane, Parque O'Higgins, Santiago, RM (Metropolitana)|1575|28|1|1|-33.465072|-70.652978|https://www.portalinmobiliario.com/MLC-2061387056-departamento-lord-cochrane-id-36334-_JM#position=10&search_layout=grid&type=item&tracking_id=c3a18045-1d9b-4749-8ce3-9d0bd15942de
Huérfanos / San Martín, Centro Histórico de Santiago, Santiago, RM (Metropolitana)|3000|52|2|2|-33.4403299|-70.6567817|https://www.portalinmobiliario.com/MLC-2117661142-departamento-huerfanos-san-martin-id-94585-_JM#position=25&search_layout=grid&type=item&tracking_id=53c24ed8-8154-483a-b32b-25ed7ae1a889
Huérfanos - Gral. Bulnes, Barrio Yungay, Santiago, RM (Metropolitana)|3718|45|1|1|-33.4421928|-70.669851|https://www.portalinmobiliario.com/MLC-2271179828-departamento-en-venta-de-1-dorm-en-santiago-_JM#position=37&search_layout=grid&type=item&tracking_id=34b36a08-9978-4dbe-aaa8-213ba5b391fc
Matucana 1161, Santiago, RM (Metropolitana)|3400|62|3|2|-33.4330944|-70.6804743|https://www.portalinmobiliario.com/MLC-1477473751-refv886-gran-oportunidad-de-inversion-3d2beb-_JM#position=1&search_layout=grid&type=item&tracking_id=22c846a4-8db2-4cdf-9360-cb3db1e09ce6
Ramón Corvalán / Barón Pierre De Coubertin, Barrio San Borja, Santiago, RM (Metropolitana)|3170|68|3|1|-33.4402416|-70.6358651|https://www.portalinmobiliario.com/MLC-2086465474-departamento-en-venta-de-3-dorm-en-santiago-_JM#position=38&search_layout=grid&type=item&tracking_id=a9bfc503-6d66-41ac-9061-e01bb7879329
Manuel Antonio Tocornal 300 - 600, Santiago, Chile, Santa Isabel, Santiago, RM (Metropolitana)|1881|30|1|1|-33.4488927|-70.6407097|https://www.portalinmobiliario.com/MLC-2375997934-lindo-departamento-en-condominio-1-dormitorio-_JM#position=39&search_layout=grid&type=item&tracking_id=ac167fdd-cf7a-4bf7-b05a-36b583c9d965
Metro Bellas Artes, Centro Histórico de Santiago, Santiago, RM (Metropolitana)|1612|30|1|1|-33.4391399|-70.6449891|https://www.portalinmobiliario.com/MLC-1473142219-impecable-huerfanos-santa-lucia-_JM#position=19&search_layout=grid&type=item&tracking_id=70171495-6ecf-41cc-9b60-37e09ca4a4d2
Pedro Lagos, 1118, Parque O'Higgins, Santiago, RM (Metropolitana)|2300|87|3|1|-33.466287|-70.648924|https://www.portalinmobiliario.com/MLC-1468746699-departamento-3-dormitorios-1-bano-rondizzoni-_JM#position=11&search_layout=grid&type=item&tracking_id=92e60104-7d52-460c-8ad7-967871aeb542
Portugal 810/, 0, Barrio Diez de Julio, Santiago, RM (Metropolitana)|3500|65|2|2|-33.4528418|-70.6339946|https://www.portalinmobiliario.com/MLC-1476733955-departamento-2d-2b-1est-1bog-_JM#position=18&search_layout=grid&type=item&tracking_id=ba845553-34b4-438a-bce1-14c3dc04df0d
Departamento En Tocornal 588, Santa Isabel, Santiago, RM (Metropolitana)|2100|38|1|1|-33.4503582|-70.6398601|https://www.portalinmobiliario.com/MLC-1438993169-departamento-en-venta-de-1-dorm-en-santiago-_JM#position=13&search_layout=grid&type=item&tracking_id=3978bf09-3ea8-4347-90e7-66a17aa31072
Depto Mariposa Semi Nuevo Parque Almagro, San Diego, Santiago, RM (Metropolitana)|3890|59|2|2|-33.4518079|-70.6465926|https://www.portalinmobiliario.com/MLC-1478350329-dpto-mariposa-moderno-seminuevo-metro-parque-almagro-_JM#position=25&search_layout=grid&type=item&tracking_id=89e952a9-a81f-45d4-83b3-f404e1f577b6
Avenida Almirante Blanco Encalada, Ejército - Toesca, Santiago, RM (Metropolitana)|1950|29|1|1|-33.4566941|-70.6626589|https://www.portalinmobiliario.com/MLC-1442309941-departamento-avenida-almirante-blanco-encalada-id-82147-_JM#position=24&search_layout=grid&type=item&tracking_id=87232290-ac01-41e0-9258-bb82b93ea661
General Jofré, Santa Isabel, Santiago, RM (Metropolitana)|2200|35|1|1|-33.4442382|-70.6344593|https://www.portalinmobiliario.com/MLC-2244759836-departamento-general-jofre-id-28210-_JM#position=9&search_layout=grid&type=item&tracking_id=696cc160-a6d3-4dac-b97e-d61f40b18e11
Amunátegui 600 - 900, Santiago, Chile, Centro Histórico de Santiago, Santiago, RM (Metropolitana)|1799|36|1|1|-33.4366262|-70.6571769|https://www.portalinmobiliario.com/MLC-1448179871-venta-de-departamento-con-fantastica-ubicacion-en-amunategui-_JM#position=5&search_layout=grid&type=item&tracking_id=07da5b4d-f244-42bd-8a63-1e01476fcd2e
Santa Isabel, Santiago, RM (Metropolitana)|2350|35|1|1|-33.450487|-70.640152|https://www.portalinmobiliario.com/MLC-2371397164-departamento-studio-en-el-mejor-barrio-de-santiago-_JM#position=37&search_layout=grid&type=item&tracking_id=a641bcb9-690b-417a-9aef-71503f226b7a
Coquimbo 777, San Diego, Santiago, RM (Metropolitana)|2277|51|2|1|-33.4559047|-70.6454134|https://www.portalinmobiliario.com/MLC-1404075895-departamento-en-venta-2-dormitorios-y-1-bano-2d-1b-_JM#position=5&search_layout=grid&type=item&tracking_id=d2548354-e2f9-417c-b525-a595a550e10c
Fray Camilo Enriquez, Santa Isabel, Santiago, RM (Metropolitana)|1451|19|1|1|-33.4473274|-70.6341784|https://www.portalinmobiliario.com/MLC-1454614529-departamento-en-venta-de-1-dorm-en-santiago-studio-_JM#position=41&search_layout=grid&type=item&tracking_id=4aad1e5b-ef77-4198-82c2-2fbed9ffeb76
Bandera, 898, Centro Histórico de Santiago, Santiago, RM (Metropolitana)|2000|39|1|1|-33.433141|-70.653513|https://www.portalinmobiliario.com/MLC-1473611979-depto-en-venta-santiago-centro-_JM#position=47&search_layout=grid&type=item&tracking_id=9edf42cc-b6d9-4871-ad16-be4d2119ff26
Santa Isabel - Carmen, Santa Isabel, Santiago, RM (Metropolitana)|3590|64|3|2|-33.4496144|-70.6412893|https://www.portalinmobiliario.com/MLC-1478379811-departamento-en-venta-de-3-dorm-en-santiago-_JM#position=34&search_layout=grid&type=item&tracking_id=61a09ec8-fbf8-4c85-aa04-314e63902e50
Lord Cochrane, Parque Almagro, Santiago, RM (Metropolitana)|3695|51|2|2|-33.4509851|-70.6542667|https://www.portalinmobiliario.com/MLC-2077094502-departamento-lord-cochrane-id-102197-_JM#position=19&search_layout=grid&type=item&tracking_id=ad89b61c-35d9-4370-9a9f-5c52e7f12fa2
San Francisco, Parque O'Higgins, Santiago, RM (Metropolitana)|2070|34|1|1|-33.4593392|-70.6452065|https://www.portalinmobiliario.com/MLC-1458541727-departamento-san-francisco-id-101630-_JM#position=45&search_layout=grid&type=item&tracking_id=19e9dcd2-f0ff-4664-bb16-516cea3bc611
Avenida España 300 - 600, Santiago, Chile, Barrio República, Santiago, RM (Metropolitana)|3000|45|2|2|-33.4543745|-70.6693467|https://www.portalinmobiliario.com/MLC-1474507629-oportunidad-precioso-departamento-2d2b-cercano-al-metro-_JM#position=1&search_layout=grid&type=item&tracking_id=eab89569-2b76-40bf-b921-1153a0878afc
Merced Con Mac Iver, Centro Histórico de Santiago, Santiago, RM (Metropolitana)|1950|22|1|1|-33.4378217|-70.6469727|https://www.portalinmobiliario.com/MLC-1449224147-departamento-en-venta-en-santiago-_JM#position=7&search_layout=grid&type=item&tracking_id=8c555f80-a5b5-4edc-a367-4bf34d2a90d0
Metro Irarrazabal, Barrio Diez de Julio, Santiago, RM (Metropolitana)|2460|38|2|1|-33.4533207|-70.6309199|https://www.portalinmobiliario.com/MLC-1439102943-departamento-en-venta-de-2dorm-a-pasos-de-metro-irarrazaval-_JM#position=12&search_layout=grid&type=item&tracking_id=0c74d70a-9da3-4212-af63-f5a99a627245
Eyzaguirre, 771, San Diego, Santiago, RM (Metropolitana)|1600|25|1|1|-33.451885|-70.646145|https://www.portalinmobiliario.com/MLC-2376666582-venta-depto-tipo-estudio-m-parque-almagro-l3-_JM#position=36&search_layout=grid&type=item&tracking_id=ff92b774-f9a3-4da1-80ae-913748c65dce
Lord Cochrane 184, Santiago, Chile, Bulnes, Santiago, RM (Metropolitana)|4300|61|2|2|-33.4484543|-70.6547064|https://www.portalinmobiliario.com/MLC-1476852185-se-vende-hermoso-departamento-central-_JM#position=29&search_layout=grid&type=item&tracking_id=7514db6d-7fb3-4277-8f22-38aa683a3d53
Metro Los Héroes, Amoblado, Barrio Brasil, Santiago, RM (Metropolitana)|2250|30|1|1|-33.4444406|-70.6635729|https://www.portalinmobiliario.com/MLC-2334319224-metro-los-heroes-amoblado-_JM#position=27&search_layout=grid&type=item&tracking_id=4a51204c-365c-4ce5-babb-b938692704ae
Moneda, Centro Histórico de Santiago, Santiago, RM (Metropolitana)|2850|65|2|1|-33.4426735|-70.6591939|https://www.portalinmobiliario.com/MLC-1467165689-departamento-moneda-id-7226-_JM#position=41&search_layout=grid&type=item&tracking_id=1a8e966d-e97b-47e3-a9dd-ca78e7460257
Chiloe, 1295, Parque O'Higgins, Santiago, RM (Metropolitana)|1962|49|2|1|-33.462577|-70.646011|https://www.portalinmobiliario.com/MLC-2161525096-metro-matta-2-dormitorios-y-1-bano-_JM#position=20&search_layout=grid&type=item&tracking_id=92e60104-7d52-460c-8ad7-967871aeb542
Barrio San Borja, Santiago, RM (Metropolitana)|3900|60|3|2|-33.4419263|-70.6412607|https://www.portalinmobiliario.com/MLC-2269526258-clinica-uc-christus-lira-santiago-region-_JM#position=46&search_layout=grid&type=item&tracking_id=a8c2002b-11fb-4c60-813d-ee8b70250e71
Eleuterio Ramirez/ Serrano/ San Francisco, Bulnes, Santiago, RM (Metropolitana)|3604|71|2|2|-33.4486287|-70.648137|https://www.portalinmobiliario.com/MLC-1439773035-venta-departamento-santiago-2-dormitorios-estacionamiento-_JM#position=37&search_layout=grid&type=item&tracking_id=860b5343-80ff-4fb0-8114-58a9f2a757f3
Depto A Pasos Del Metro Bellas Artes 1d/1b Con Bodega, Centro Histórico de Santiago, Santiago, RM (Metropolitana)|2100|36|1|1|-33.4364557|-70.643947|https://www.portalinmobiliario.com/MLC-2348061708-depto-a-pasos-del-metro-bellas-artes-1d1b-con-bodega-_JM#position=34&search_layout=grid&type=item&tracking_id=8a9b04e0-0149-45bf-a8d6-f46fa7f16269
Barrio Yungay, Barrio Yungay, Santiago, RM (Metropolitana)|3790|73|3|2|-33.446634|-70.6708658|https://www.portalinmobiliario.com/MLC-1474175417-departamento-venta-barrio-yungay-3d-2b-excelente-ubicacion-_JM#position=35&search_layout=grid&type=item&tracking_id=67659ac7-5865-4e7f-a9e2-d9047a6d9a6d
Cómodo Dpto 1d 1b 1b - Santa Lucia!, Bulnes, Santiago, RM (Metropolitana)|2153|44|1|1|-33.446985|-70.648099|https://www.portalinmobiliario.com/MLC-1475694467-comodo-dpto-1d-1b-1b-santa-lucia-26503-_JM#position=44&search_layout=grid&type=item&tracking_id=69e6846c-1d9e-4a40-a0cd-386846634b40
Estupendo Precio Y Ubicación, Santa Isabel, Santiago, RM (Metropolitana)|2850|35|1|1|-33.4473582|-70.642332|https://www.portalinmobiliario.com/MLC-2345561896-estupendo-precio-y-ubicacion-24916-_JM#position=10&search_layout=grid&type=item&tracking_id=1e42c180-41da-4212-b00e-acbbdb134c33
Catedral 1885, Santiago, Chile, Barrio Brasil, Santiago, RM (Metropolitana)|1795|24|1|1|-33.4385684|-70.6635955|https://www.portalinmobiliario.com/MLC-1470886177-edificio-nueva-catedral-dpto-611-a-santiago-_JM#position=17&search_layout=grid&type=item&tracking_id=4824a552-af29-4cd8-87fb-e5735ddcaf98
General Gana 900 - 1200, Santiago, Chile, Franklin - Biobío, Santiago, RM (Metropolitana)|2590|48|2|2|-33.4712446|-70.6481275|https://www.portalinmobiliario.com/MLC-1445638709-excelentes-departamentos-nuevos-metro-franklin-_JM#position=22&search_layout=grid&type=item&tracking_id=99f60eaa-8e14-45ee-9e01-d7188c481cb1
Lira 297, Santiago, Chile, Santa Isabel, Santiago, RM (Metropolitana)|2899|47|2|2|-33.447129|-70.6399|https://www.portalinmobiliario.com/MLC-1474148491-lira-297-santiago-_JM#position=45&search_layout=grid&type=item&tracking_id=3978bf09-3ea8-4347-90e7-66a17aa31072
Se Vende Precioso Departamento 2d/2b/bx/bd Metro Santa Isabe, Barrio Diez de Julio, Santiago, RM (Metropolitana)|3400|52|2|2|-33.4511624|-70.6395355|https://www.portalinmobiliario.com/MLC-1473506145-se-vende-precioso-departamento-2d2bbxbd-metro-santa-isabe-_JM#position=38&search_layout=grid&type=item&tracking_id=b9c42142-432a-4b34-879f-6f4a7bb0a619
Eyzaguirre 819, Santiago, Chile, San Diego, Santiago, RM (Metropolitana)|1650|27|1|1|-33.4520115|-70.6470767|https://www.portalinmobiliario.com/MLC-1475534561-departamento-estudio-en-venta-semi-nuevo-_JM#position=33&search_layout=grid&type=item&tracking_id=977fb512-8e1f-4907-83b6-57e2bf3439c5
Departamento Venta 2d1b1e 1bod,san Pablo, Barrio Brasil, Santiago, RM (Metropolitana)|2400|47|2|1|-33.4352414|-70.6654184|https://www.portalinmobiliario.com/MLC-1475218645-departamento-venta-2d1b1e-1bodsan-pablo-12763-_JM#position=15&search_layout=grid&type=item&tracking_id=0f7da077-303f-4976-aa9e-a02565200f8b
Parque Forestal, Barrio Lastarria, Santiago, RM (Metropolitana)|18900|412|4|3|-33.4365967|-70.6411371|https://www.portalinmobiliario.com/MLC-1455295409-departamento-en-venta-de-4-dorm-en-santiago-_JM#position=6&search_layout=grid&type=item&tracking_id=57d97b73-890b-45d1-95ef-2187c7939a83
Villavicencio, Santiago, Chile, Barrio Lastarria, Santiago, RM (Metropolitana)|3171|42|1|1|-33.4382093|-70.6401906|https://www.portalinmobiliario.com/MLC-1476831527-departamento-barrio-lastarria-remodelado-_JM#position=9&search_layout=grid&type=item&tracking_id=21d5f292-c3a4-4509-9324-8684731a6cd3
Rosas 2599, Barrio Yungay, Santiago, RM (Metropolitana)|1600|30|1|1|-33.4366689|-70.6726577|https://www.portalinmobiliario.com/MLC-2117700006-departamento-rosas-2599-id-73148-_JM#position=40&search_layout=grid&type=item&tracking_id=e2e8c48d-6a91-468a-82a9-3a69cd776ba6
Barrio San Borja, Santiago, RM (Metropolitana)|5800|65|3|2|-33.4406184|-70.6414034|https://www.portalinmobiliario.com/MLC-1472492565-departamento-en-barrio-lastarria-3d2b-_JM#position=29&search_layout=grid&type=item&tracking_id=c0ca3a4d-16e8-4b3e-a32c-ca17797820c3
Santa Isabel 765, Santiago, Chile, San Diego, Santiago, RM (Metropolitana)|1850|35|1|1|-33.4505967|-70.6462054|https://www.portalinmobiliario.com/MLC-2199921460-oportunidad-para-vivir-o-para-invertir-_JM#position=14&search_layout=grid&type=item&tracking_id=0622dfbd-7753-4981-b918-d3fdfe03f135
San Diego 1344, Dpto.1602, Est. 2091. Santiago, Santiago, RM (Metropolitana)|1877|0|1|1|32.715738|-117.1610838|https://www.portalinmobiliario.com/MLC-1444455691-hasta-100-de-financiamiento-departamento-en-santiago-_JM#position=33&search_layout=grid&type=item&tracking_id=75947e15-7cf0-4f78-a9b2-e1e14f47c5ba
Argomedo 315, 8330373 Santiago, Región Metropolitana, Chile, Santa Isabel, Santiago, RM (Metropolitana)|1900|37|1|1|-33.4494795|-70.6356164|https://www.portalinmobiliario.com/MLC-2369918190-oportunidad-de-excelente-depto-a-pasos-metro-sta-isabel-_JM#position=42&search_layout=grid&type=item&tracking_id=2edf3943-efe5-4003-9c39-44867b9e9402
Eleuterio Ramírez 600 - 900, Santiago, Región Metropolitana, Chile, San Diego, Santiago, RM (Metropolitana)|1680|36|1|1|-33.4482405|-70.6451477|https://www.portalinmobiliario.com/MLC-2326961926-departamento-en-venta-muy-buen-estado-en-stgo-centro-_JM#position=41&search_layout=grid&type=item&tracking_id=d2548354-e2f9-417c-b525-a595a550e10c
Eleuterio Ramirez / Serrano, Bulnes, Santiago, RM (Metropolitana)|1800|29|1|1|-33.4480918|-70.6484007|https://www.portalinmobiliario.com/MLC-1441196875-departamento-en-venta-de-1-dorm-en-santiago-_JM#position=30&search_layout=grid&type=item&tracking_id=f24f6532-afea-4963-9918-2c229fe3edb6
Av Portugal, Barrio Diez de Julio, Santiago, RM (Metropolitana)|2700|37|1|1|-33.4553044|-70.6335244|https://www.portalinmobiliario.com/MLC-1455648789-departamento-en-venta-de-1-dorm-en-santiago-_JM#position=44&search_layout=grid&type=item&tracking_id=0c74d70a-9da3-4212-af63-f5a99a627245
Metro Moneda, Bulnes, Santiago, RM (Metropolitana)|2380|49|2|1|-33.4485752|-70.6549827|https://www.portalinmobiliario.com/MLC-1443081565-departamento-centro-historico-de-santiago-_JM#position=17&search_layout=grid&type=item&tracking_id=319a118d-4a66-464a-abf2-7887ae2971a1
Lord Cochrane 1 - 300, Santiago, Chile, Bulnes, Santiago, RM (Metropolitana)|3190|57|2|2|-33.4500724|-70.654714|https://www.portalinmobiliario.com/MLC-2374830470-atencion-honorarios-depto-lord-cochrane-cerca-metro-moneda-_JM#position=34&search_layout=grid&type=item&tracking_id=bee465cf-4ccd-4bdc-903b-e16c93170401
Carmen, Bogotá - Sierra Bella, Santiago, RM (Metropolitana)|2450|42|2|1|-33.4582298|-70.6394828|https://www.portalinmobiliario.com/MLC-2117661146-departamento-carmen-id-36984-_JM#position=37&search_layout=grid&type=item&tracking_id=3d7f6e32-fa6b-4bfe-bb60-e2ccc3d34c09
¡departamento Cerca De Metro En Sgto. Centro!, Santa Isabel, Santiago, RM (Metropolitana)|1900|36|1|1|-33.4509642|-70.6409468|https://www.portalinmobiliario.com/MLC-1477421465-departamento-cerca-de-metro-en-sgto-centro-_JM#position=9&search_layout=grid&type=item&tracking_id=1b2ac868-87b2-4cb4-b9fe-5c97faa2dccc
General Mackenna 1555, Centro Histórico de Santiago, Santiago, RM (Metropolitana)|2500|30|1|1|-33.433228|-70.659729|https://www.portalinmobiliario.com/MLC-1437621337-edificio-general-mackenna-vista-suroriente-piso-4-_JM#position=33&search_layout=grid&type=item&tracking_id=e468ac46-7985-4564-a354-7d033d847bf0
Carmen 1 - 300, Santiago, Chile, Santa Isabel, Santiago, Rm (metropolitana) Ver Información De La Zona, Centro Histórico de Santiago, Santiago, RM (Metropolitana)|3500|65|3|2|-33.4452217|-70.6573657|https://www.portalinmobiliario.com/MLC-2177281708-hermoso-departamento-con-gran-ubicacion-totalmente-central-_JM#position=42&search_layout=grid&type=item&tracking_id=4d43185c-3bd9-4eb9-9ecb-e8325d08f967
Avenida Presidente Balmaceda, Parque Los Reyes, Santiago, RM (Metropolitana)|1900|35|1|1|-33.4309806|-70.6623076|https://www.portalinmobiliario.com/MLC-2275400946-departamento-avenida-presidente-balmaceda-id-47903-_JM#position=26&search_layout=grid&type=item&tracking_id=184bf467-db98-4bf4-85e2-918796730ae5
Av Ricardo Cumming / Av Presidente Balmaceda, Parque Los Reyes, Santiago, RM (Metropolitana)|2285|36|1|1|-33.4297066|-70.6695182|https://www.portalinmobiliario.com/MLC-1470601233-venta-departamento-santiago-_JM#position=34&search_layout=grid&type=item&tracking_id=a98e79ca-dc2b-4ac9-bc8f-48ab6449071e
Centro Histórico de Santiago, Santiago, RM (Metropolitana)|15200|275|3|3|-33.43546|-70.64584|https://www.portalinmobiliario.com/MLC-2325641886-venta-exclusivo-dpto-frente-al-parque-forestal-_JM#position=14&search_layout=grid&type=item&tracking_id=70171495-6ecf-41cc-9b60-37e09ca4a4d2
Eleuterio Ramírez 740, San Diego, Santiago, RM (Metropolitana)|2000|14|1|1|-33.448311|-70.645554|https://www.portalinmobiliario.com/MLC-2085732004-edificio-eleuterio-ramirez-vista-poniente-piso-13-_JM#position=14&search_layout=grid&type=item&tracking_id=977fb512-8e1f-4907-83b6-57e2bf3439c5
Carmen 566, Santiago, Chile, Santa Isabel, Santiago, RM (Metropolitana)|2900|48|2|2|-33.4504296|-70.6409653|https://www.portalinmobiliario.com/MLC-2190267216-se-vende-depto-2-dormitorios-2-banos-carmen-566-_JM#position=37&search_layout=grid&type=item&tracking_id=f5a5c48c-379f-4bf6-92ea-caca240d87bd
(fnb) Santa Elena Esquina Vicuña Mackenna, Bogotá - Sierra Bella, Santiago, RM (Metropolitana)|5100|67|2|2|-33.4601109|-70.6287398|https://www.portalinmobiliario.com/MLC-2129010772-departamento-en-venta-de-2d432b-en-santiago-_JM#position=31&search_layout=grid&type=item&tracking_id=eeb6179b-87eb-4089-b4ec-1c78b2c2e104
Almirante Latorre, Ejército - Toesca, Santiago, RM (Metropolitana)|3150|47|2|1|-33.4488212|-70.6643381|https://www.portalinmobiliario.com/MLC-2383631874-excelente-departamento-en-almirante-latorre-metro-republica-_JM#position=32&search_layout=grid&type=item&tracking_id=0aca173a-8391-45d9-af8f-2b97882ec3d4
Argomedo, 190, Santa Isabel, Santiago, RM (Metropolitana)|2775|41|2|1|-33.44939|-70.633804|https://www.portalinmobiliario.com/MLC-2357657638-venta-departamento-metro-santa-isabel-_JM#position=28&search_layout=grid&type=item&tracking_id=8f23322d-dc57-45e6-8f55-f23cbf9b140a
Ejército - Toesca, Santiago, RM (Metropolitana)|3300|55|1|1|-33.4537489|-70.6613421|https://www.portalinmobiliario.com/MLC-2350139738-moderno-ideal-universitarios-_JM#position=20&search_layout=grid&type=item&tracking_id=b61a227c-11e1-43a5-8f75-1d77877e37d2
Maipú 600 - 900, Santiago, Chile, Barrio Yungay, Santiago, RM (Metropolitana)|1300|53|2|1|-33.4360984|-70.6768436|https://www.portalinmobiliario.com/MLC-1477214471-dep-acogedor-cerca-de-comercios-y-metro-buen-precio-_JM#position=42&search_layout=grid&type=item&tracking_id=555da293-94ea-4d7a-8a9e-13990a6993fc
A Pasos Del Metro Santa Ana Y Puente Cal Y Canto, Centro Histórico de Santiago, Santiago, RM (Metropolitana)|3320|55|2|2|-33.432165|-70.6583543|https://www.portalinmobiliario.com/MLC-2177193362-departamento-2-dorm-en-santiago-venta-sin-comision-_JM#position=47&search_layout=grid&type=item&tracking_id=07845d48-f48e-4d2d-8177-8db0ae602cd7
Agustinas / Ruta 5 Sur, Centro Histórico de Santiago, Santiago, RM (Metropolitana)|4000|90|3|2|-33.4419532|-70.659432|https://www.portalinmobiliario.com/MLC-2117687184-departamento-agustinas-ruta-5-sur-id-94642-_JM#position=9&search_layout=grid&type=item&tracking_id=eff58ecc-675e-49be-a2a3-432cd58f64a4
Santa Isabel, Santiago, RM (Metropolitana)|3800|65|2|2|-33.448616|-70.6374156|https://www.portalinmobiliario.com/MLC-2325740232-amplio-dpto-2d-estacionamiento-santa-isabel-_JM#position=48&search_layout=grid&type=item&tracking_id=feed9058-fd81-49fc-b95e-4ff3f7520f6a
Tucapel Jiménez, Santiago, Chile, Centro Histórico de Santiago, Santiago, RM (Metropolitana)|1747|34|1|1|-33.4432707|-70.658988|https://www.portalinmobiliario.com/MLC-2104557822-lindo-departamento-en-venta-_JM#position=21&search_layout=grid&type=item&tracking_id=be84efed-8c56-4731-8f66-f7d3471098e6
Cueto /sto Domingo Metro Cumming, Barrio Yungay, Santiago, RM (Metropolitana)|1612|36|1|1|-33.43899|-70.6719775|https://www.portalinmobiliario.com/MLC-2120554446-departamento-1d1b-venta-en-centro-santiagooportunidad-_JM#position=7&search_layout=grid&type=item&tracking_id=28182483-46bd-4b78-b26d-8f3e955d1a32
Chiloé / Matta - 1d &#43; 1b, Parque O'Higgins, Santiago, RM (Metropolitana)|2400|35|1|1|-33.4613628|-70.646143|https://www.portalinmobiliario.com/MLC-2268989338-departamento-en-venta-de-1-dorm-en-santiago-_JM#position=10&search_layout=grid&type=item&tracking_id=0b350ee6-003c-46f8-a149-4d5d91ea2137
Plaza Brasil, Barrio Brasil, Santiago, RM (Metropolitana)|1980|28|1|1|-33.4382834|-70.6635963|https://www.portalinmobiliario.com/MLC-1439351529-departamento-en-venta-en-santiago-_JM#position=45&search_layout=grid&type=item&tracking_id=0f7da077-303f-4976-aa9e-a02565200f8b
San Martín 733, Centro Histórico de Santiago, Santiago, RM (Metropolitana)|2590|55|2|2|-33.435219|-70.658649|https://www.portalinmobiliario.com/MLC-1475165991-venta-depto-2d2b-mariposa-metro-santa-ana-santiago-_JM#position=31&search_layout=grid&type=item&tracking_id=f3b094a8-3709-44e2-afc6-41c479c85c79
Santa Isabel, Santiago, RM (Metropolitana)|2900|48|2|1|-33.4492216|-70.6341934|https://www.portalinmobiliario.com/MLC-2272037322-departamento-2-dormitorios-argomedo-_JM#position=38&search_layout=grid&type=item&tracking_id=f5a5c48c-379f-4bf6-92ea-caca240d87bd
San Pablo Con Avenida Brasil, Barrio Brasil, Santiago, RM (Metropolitana)|3000|66|3|2|-33.4349041|-70.6659019|https://www.portalinmobiliario.com/MLC-1464482415-departamento-en-venta-de-3-dorm-2-banos-1-bodega-en-santiago-_JM#position=1&search_layout=grid&type=item&tracking_id=1bdbfddc-f1a0-4b7b-ae67-70a318523365
Mapocho, Centro Histórico de Santiago, Santiago, RM (Metropolitana)|1890|29|1|1|-33.4321176|-70.6591836|https://www.portalinmobiliario.com/MLC-2117634982-departamento-mapocho-id-49624-_JM#position=9&search_layout=grid&type=item&tracking_id=0ca39672-0ea5-4efa-9c9d-25851a13f3de
Av. Matta Con Vicuña Mackenna, Bogotá - Sierra Bella, Santiago, RM (Metropolitana)|2255|42|2|2|-33.4570733|-70.6295945|https://www.portalinmobiliario.com/MLC-2371328514-oportunidad-av-matta-con-vicuna-mackenna-_JM#position=16&search_layout=grid&type=item&tracking_id=75947e15-7cf0-4f78-a9b2-e1e14f47c5ba
Bulnes, Santiago, RM (Metropolitana)|3450|50|2|1|-33.447714|-70.653979|https://www.portalinmobiliario.com/MLC-1462687781-venta-deparamento-comuna-santiago-centro-_JM#position=8&search_layout=grid&type=item&tracking_id=b724bf96-7df1-4fb5-85b5-dc888222771b
Marin / Lira, Santa Isabel, Santiago, RM (Metropolitana)|2200|67|1|1|-33.447934|-70.6395563|https://www.portalinmobiliario.com/MLC-1466309713-departamento-en-venta-de-1-dorm-en-santiago-_JM#position=24&search_layout=grid&type=item&tracking_id=6f016e3d-3959-473d-ae51-0ff529e9c633
Centro Histórico de Santiago, Santiago, RM (Metropolitana)|8870|172|2|2|-33.4346736|-70.6461346|https://www.portalinmobiliario.com/MLC-1462990551-clasico-2d-servicios-en-parque-forestal-_JM#position=27&search_layout=grid&type=item&tracking_id=c0ca3a4d-16e8-4b3e-a32c-ca17797820c3
San Diego 1344, Santiago Centro, Santiago, Chile, Parque O'Higgins, Santiago, RM (Metropolitana)|1600|31|1|1|-33.4629535|-70.6487813|https://www.portalinmobiliario.com/MLC-1447832621-1-dorm-1-bano-en-pleno-santiago-metro-parque-ohiggins-_JM#position=7&search_layout=grid&type=item&tracking_id=31680df8-d52e-42f4-8a30-8222d1c902d6
San Pablo 1800 - 2100, Santiago, Chile, Barrio Brasil, Santiago, RM (Metropolitana)|2069|43|2|2|-33.4348924|-70.6649957|https://www.portalinmobiliario.com/MLC-2037677282-excelente-depto-2-dorm2banos-para-inversion-_JM#position=6&search_layout=grid&type=item&tracking_id=9b63cc9a-bb9f-4622-af73-96d5c6576b07
San Francisco 350 Metro Parque Almagro, San Diego, Santiago, RM (Metropolitana)|2690|48|2|2|-33.4491744|-70.6466463|https://www.portalinmobiliario.com/MLC-2369283718-san-francisco-350-metro-parque-almagro-_JM#position=34&search_layout=grid&type=item&tracking_id=19c2411a-352c-4da1-8518-8ed69b0a4822
Edificio Ejercito Bicentenario, Ejército - Toesca, Santiago, RM (Metropolitana)|2950|60|2|1|-33.4564026|-70.6588846|https://www.portalinmobiliario.com/MLC-1442314343-departamento-edificio-ejercito-bicentenario-id-78224-_JM#position=1&search_layout=grid&type=item&tracking_id=242369c3-e4f3-4302-8812-fc2d99a49ef1
Eyzaguirre, San Diego, Santiago, RM (Metropolitana)|1950|35|1|1|-33.4525435|-70.645863|https://www.portalinmobiliario.com/MLC-1468454547-departamento-eyzaguirre-id-104602-_JM#position=36&search_layout=grid&type=item&tracking_id=4aad1e5b-ef77-4198-82c2-2fbed9ffeb76
Metro Irarrazabal, Barrio Diez de Julio, Santiago, RM (Metropolitana)|2175|28|1|1|-33.4534014|-70.6308113|https://www.portalinmobiliario.com/MLC-1475557531-venta-departamento-1d-1b-metro-irarrazabal-_JM#position=37&search_layout=grid&type=item&tracking_id=4824a552-af29-4cd8-87fb-e5735ddcaf98
Calle Placer, 0, Franklin - Biobío, Santiago, RM (Metropolitana)|1890|49|3|1|-33.475769|-70.648731|https://www.portalinmobiliario.com/MLC-2381910310-oportunidad-conectividad-a-pasos-metro-franklin-_JM#position=15&search_layout=grid&type=item&tracking_id=4de0ff12-7d85-4a09-a5bc-23b187016a29
Santa Victoria 562, Santiago, Chile, Santa Isabel, Santiago, RM (Metropolitana)|3400|51|2|2|-33.4489562|-70.6428838|https://www.portalinmobiliario.com/MLC-2381892172-venta-dpto-entre-sta-victoria-y-san-isidro-cod-604-_JM#position=44&search_layout=grid&type=item&tracking_id=1b2ac868-87b2-4cb4-b9fe-5c97faa2dccc
Avenida Santa Rosa 600 - 900, Santiago, Chile, Barrio Diez de Julio, Santiago, RM (Metropolitana)|3390|63|2|2|-33.4521876|-70.6439491|https://www.portalinmobiliario.com/MLC-2263551246-espectacular-departamento-modelo-mariposa-_JM#position=33&search_layout=grid&type=item&tracking_id=b9c42142-432a-4b34-879f-6f4a7bb0a619
Rosas 1910, Santiago, Chile, Barrio Brasil, Santiago, RM (Metropolitana)|4435|77|3|2|-33.4364396|-70.6639216|https://www.portalinmobiliario.com/MLC-1437062149-rosas-av-brasil-_JM#position=36&search_layout=grid&type=item&tracking_id=1bdbfddc-f1a0-4b7b-ae67-70a318523365
San Francisco, San Diego, Santiago, RM (Metropolitana)|3700|90|3|2|-33.448914|-70.6466714|https://www.portalinmobiliario.com/MLC-2241282048-departamento-en-venta-de-3-dorm-en-santiago-_JM#position=42&search_layout=grid&type=item&tracking_id=feed9058-fd81-49fc-b95e-4ff3f7520f6a
General Jofré / Lira, Santa Isabel, Santiago, RM (Metropolitana)|3700|67|3|2|-33.445497|-70.6381058|https://www.portalinmobiliario.com/MLC-2146233968-departamento-en-venta-cercano-a-hospital-clinico-u-catolica-_JM#position=11&search_layout=grid&type=item&tracking_id=0cff10d3-ad9e-426c-8e39-0f3eaeb5a0f1
Se Vende Departamento, Parque Los Reyes, Santiago, RM (Metropolitana)|2700|63|3|2|-33.4276689|-70.6753235|https://www.portalinmobiliario.com/MLC-1445974419-se-vende-departamento-_JM#position=10&search_layout=grid&type=item&tracking_id=a98e79ca-dc2b-4ac9-bc8f-48ab6449071e
Dieciocho, Parque Almagro, Santiago, RM (Metropolitana)|3990|68|2|2|-33.4561514|-70.6560544|https://www.portalinmobiliario.com/MLC-1433909287-departamento-dieciocho-id-112714-_JM#position=5&search_layout=grid&type=item&tracking_id=4c8b3c96-250c-4842-82c7-a83e71464974
Avenida Libertador Bernardo O'higgins, Bulnes, Santiago, RM (Metropolitana)|3000|45|1|1|-33.4458595|-70.654031|https://www.portalinmobiliario.com/MLC-2117699654-departamento-avenida-libertador-bernardo-ohiggins-id-35159-_JM#position=23&search_layout=grid&type=item&tracking_id=e0db2cf9-9e02-4b77-afb8-9db15e17b3fb
Avenida Vicuña Mackenna, Santa Isabel, Santiago, RM (Metropolitana)|2690|48|2|1|-33.4459117|-70.633344|https://www.portalinmobiliario.com/MLC-2172158282-departamento-avenida-vicuna-mackenna-id-109687-_JM#position=34&search_layout=grid&type=item&tracking_id=7b2638ad-c012-4092-a870-1ec6daa43db2
San Isidro, Santiago, Santa Isabel, Santiago, RM (Metropolitana)|1935|41|1|1|-33.4503304|-70.6430127|https://www.portalinmobiliario.com/MLC-2381987900-departamento-1-dormitorio-sta-isabel-con-san-isidro-_JM#position=31&search_layout=grid&type=item&tracking_id=ac167fdd-cf7a-4bf7-b05a-36b583c9d965
Parque Los Reyes, Santiago, RM (Metropolitana)|3517|49|2|2|-33.43048|-70.671469|https://www.portalinmobiliario.com/MLC-2371395902-departamento-nuevo-venta-en-verde-oportunidad-_JM#position=7&search_layout=grid&type=item&tracking_id=a98e79ca-dc2b-4ac9-bc8f-48ab6449071e
Manuel Antonio Tocornal 300 - 600, Santiago, Chile, Santa Isabel, Santiago, RM (Metropolitana)|1850|35|1|1|-33.4488927|-70.6407097|https://www.portalinmobiliario.com/MLC-1471070281-tocornal-esquina-santa-isabel-_JM#position=6&search_layout=grid&type=item&tracking_id=68af4bd7-e50c-4466-9cc9-6981513ff78d
Metro Parque Almagro, San Diego, Santiago, RM (Metropolitana)|2000|33|1|1|-33.4520319|-70.6468291|https://www.portalinmobiliario.com/MLC-2369958096-dpto-con-amplia-terraza-y-cercano-a-parque-almagro-_JM#position=11&search_layout=grid&type=item&tracking_id=915a17f7-94d3-4840-be5d-b109c30f5989
Serrano 1 - 300, Santiago, Chile, Bulnes, Santiago, RM (Metropolitana)|2000|30|1|1|-33.448118|-70.6484594|https://www.portalinmobiliario.com/MLC-2339772850-departamento-para-inversion-en-santiago-centro-_JM#position=17&search_layout=grid&type=item&tracking_id=e0366b74-7e4c-4f2c-a25c-8e41c09b9fa8
Morandé, Centro Histórico de Santiago, Santiago, RM (Metropolitana)|3670|60|2|2|-33.4367637|-70.6544418|https://www.portalinmobiliario.com/MLC-1451573777-departamento-morande-id-108816-_JM#position=43&search_layout=grid&type=item&tracking_id=051b4ada-34bb-4aee-88b0-2b4f22f6e389
Lord Cochrane Con Condor, Parque Almagro, Santiago, RM (Metropolitana)|2200|34|1|1|-33.4507518|-70.6542392|https://www.portalinmobiliario.com/MLC-2284634458-lord-cochrane-con-condor-_JM#position=39&search_layout=grid&type=item&tracking_id=97cde6bc-01c1-469f-98d7-49e578b4afd5
Recien Remodelado. Oportunidad Con Vista Despejada, Santa Isabel, Santiago, Rm (metropolitana), Parque Almagro, Santiago, RM (Metropolitana)|2900|62|2|2|-33.4533395|-70.6574159|https://www.portalinmobiliario.com/MLC-1456052797-departamento-en-venta-de-2-dorm-en-santiago-_JM#position=45&search_layout=grid&type=item&tracking_id=305f70e3-0de5-4b1b-b907-be6a325020f6
Arturo Prat Con Santiago, Parque O'Higgins, Santiago, RM (Metropolitana)|2300|40|2|1|-33.4624975|-70.6468301|https://www.portalinmobiliario.com/MLC-1442284297-dpto-en-venta-2d1b-santiago-metro-parque-ohiggins-_JM#position=12&search_layout=grid&type=item&tracking_id=19e9dcd2-f0ff-4664-bb16-516cea3bc611
Sazié 1738, Santiago, Chile, Ejército - Toesca, Santiago, RM (Metropolitana)|2500|45|2|1|-33.449559|-70.6602273|https://www.portalinmobiliario.com/MLC-1461023491-venta-depto-2d1b-_JM#position=44&search_layout=grid&type=item&tracking_id=242369c3-e4f3-4302-8812-fc2d99a49ef1
Metro Sta Ana Impecable, Centro Histórico de Santiago, Santiago, RM (Metropolitana)|1700|29|1|1|-33.4361302|-70.658513|https://www.portalinmobiliario.com/MLC-2063150278-metro-sta-ana-impecable-_JM#position=11&search_layout=grid&type=item&tracking_id=0ca39672-0ea5-4efa-9c9d-25851a13f3de
Argomedo 65, Santiago, Chile, Santa Isabel, Santiago, RM (Metropolitana)|2594|35|1|1|-33.4489443|-70.6327449|https://www.portalinmobiliario.com/MLC-1472768773-depto-metro-santa-isabel-orientacion-norte-muy-comodo-_JM#position=18&search_layout=grid&type=item&tracking_id=6d4e128f-5275-4e06-8d7e-0c438f1d2669
San Diego 1344, Santiago, Chile, Parque O'Higgins, Santiago, RM (Metropolitana)|2327|43|2|1|-33.4629535|-70.6487813|https://www.portalinmobiliario.com/MLC-2269003038-edificio-oriente-conj-habit-mirador-central-dpto-913-o-_JM#position=24&search_layout=grid&type=item&tracking_id=53c24ed8-8154-483a-b32b-25ed7ae1a889
Tarapacá / Metro U. De Chile, Bulnes, Santiago, RM (Metropolitana)|2800|53|2|2|-33.4471169|-70.6487503|https://www.portalinmobiliario.com/MLC-1443794403-tarapaca-metro-u-de-chile-_JM#position=40&search_layout=grid&type=item&tracking_id=7e8ec5ac-2a0f-4a76-b794-1e4d8f2968f1
San Francisco 200 - 400, Bulnes, Santiago, RM (Metropolitana)|3279|56|3|1|-33.4482259|-70.6468927|https://www.portalinmobiliario.com/MLC-1458937325-metro-santa-lucia-3-d-1-b-estacionamiento-bodega-_JM#position=10&search_layout=grid&type=item&tracking_id=3029b441-1c74-48ca-88eb-caf6ddcbd5a9
Arturo Prat Con Santa Isabel, San Diego, Santiago, RM (Metropolitana)|3280|32|1|1|-33.4524707|-70.6486588|https://www.portalinmobiliario.com/MLC-2375782624-santiago-centro-_JM#position=12&search_layout=grid&type=item&tracking_id=89e952a9-a81f-45d4-83b3-f404e1f577b6
Aldunate 1064, Santiago, Chile, Parque Almagro, Santiago, RM (Metropolitana)|1710|33|1|1|-33.4596054|-70.6543107|https://www.portalinmobiliario.com/MLC-2224386696-1d-1b-aldunate-1064-santiago-metro-parque-ohiggins-_JM#position=16&search_layout=grid&type=item&tracking_id=0c81ca27-5b6d-4e81-a06d-cbca10b4a524
Mencia De Los Nidos, Parque Almagro, Santiago, RM (Metropolitana)|2956|69|3|2|-33.4509221|-70.650798|https://www.portalinmobiliario.com/MLC-2271395136-departamento-en-venta-de-3-dorm-en-santiago-_JM#position=40&search_layout=grid&type=item&tracking_id=97cde6bc-01c1-469f-98d7-49e578b4afd5
Erasmo Escala, Barrio Yungay, Santiago, RM (Metropolitana)|2600|46|1|1|-33.4457069|-70.6772007|https://www.portalinmobiliario.com/MLC-2227102364-departamento-en-venta-en-santiago-_JM#position=27&search_layout=grid&type=item&tracking_id=82a0818c-1951-4b03-b9db-83a3ee71356a
Edificio Carrera Iii - Constructora Almagro, Ejército - Toesca, Santiago, RM (Metropolitana)|3200|40|1|1|-33.4561777|-70.6627938|https://www.portalinmobiliario.com/MLC-1474167669-venta-departamento-1-dormitorio-beuchef-santiago-carrera-iii-_JM#position=21&search_layout=grid&type=item&tracking_id=6e3687e4-55ff-4950-ba01-447ca3ee5f7b
Mapocho- Maipú Tt, Parque Los Reyes, Santiago, RM (Metropolitana)|1990|45|2|1|-33.4322117|-70.6775275|https://www.portalinmobiliario.com/MLC-1473290201-departamento-en-venta-de-2-dorm-en-santiago-_JM#position=46&search_layout=grid&type=item&tracking_id=a98e79ca-dc2b-4ac9-bc8f-48ab6449071e
Maturana / Moneda, Barrio Brasil, Santiago, RM (Metropolitana)|2419|47|2|1|-33.4437979|-70.6668259|https://www.portalinmobiliario.com/MLC-1695946278-departamento-en-venta-de-2-dorm-en-santiago-_JM#position=16&search_layout=grid&type=item&tracking_id=4a51204c-365c-4ce5-babb-b938692704ae
Departamento En Santiago, Centro Histórico de Santiago, Santiago, RM (Metropolitana)|2890|49|2|1|-33.4379596|-70.6449796|https://www.portalinmobiliario.com/MLC-2338712020-departamento-en-santiago-_JM#position=38&search_layout=grid&type=item&tracking_id=06e9d37c-e4c7-42cc-8f32-41c52f1a460f
Rosas 1444, Centro Histórico de Santiago, Santiago, RM (Metropolitana)|3031|34|1|1|-33.435794|-70.6577694|https://www.portalinmobiliario.com/MLC-975135501-edificio-rosas-1444-_JM#position=17&search_layout=grid&type=item&tracking_id=c8438234-aa78-4abf-bca7-0237e04d9eb6
Parque Forestal, Centro Histórico de Santiago, Santiago, RM (Metropolitana)|6500|100|2|2|-33.4344978|-70.6468379|https://www.portalinmobiliario.com/MLC-2083672866-departamento-en-venta-de-2-dorm-en-santiago-_JM#position=10&search_layout=grid&type=item&tracking_id=ecdb45d2-9a53-4d84-9596-557b47614778
Coquimbo, 1 - 300, Barrio Diez de Julio, Santiago, RM (Metropolitana)|1900|37|2|1|-33.45362|-70.631384|https://www.portalinmobiliario.com/MLC-1460469595-cocina-y-bano-completamente-remodelados-_JM#position=30&search_layout=grid&type=item&tracking_id=e2bb7d32-69af-42e0-a7cd-04177582fe79
Tarapaca 752, Bulnes, Santiago, RM (Metropolitana)|3390|60|3|2|-33.446621|-70.6460771|https://www.portalinmobiliario.com/MLC-1434489535-centrico-dpto-a-la-venta-3d-2b-y-estacionamiento-metro-sa-_JM#position=4&search_layout=grid&type=item&tracking_id=f24f6532-afea-4963-9918-2c229fe3edb6
Lord Cochrane, Santiago, Chile, Parque O'Higgins, Santiago, RM (Metropolitana)|1700|30|1|1|-33.4613067|-70.6532446|https://www.portalinmobiliario.com/MLC-2240571284-venta-excelente-oportunidad-depto-1-dormitorio-parque-ohiggi-_JM#position=11&search_layout=grid&type=item&tracking_id=2dce33c9-a2a7-41d4-97a7-44a2755aa8c2
Avenida Portugal 810, Santiago, Chile, Barrio Diez de Julio, Santiago, RM (Metropolitana)|2820|65|2|2|-33.4528418|-70.6339946|https://www.portalinmobiliario.com/MLC-2095542684-portugal-810-dp-1809-_JM#position=41&search_layout=grid&type=item&tracking_id=c0ca3a4d-16e8-4b3e-a32c-ca17797820c3
Arturo Prat / Eleuterio Ramirez, San Diego, Santiago, RM (Metropolitana)|3650|56|2|2|-33.4490548|-70.6492125|https://www.portalinmobiliario.com/MLC-2276172976-departamento-venta-de-2-dorm-metro-u-de-chile-santiago-_JM#position=26&search_layout=grid&type=item&tracking_id=14e0d470-229c-4585-a472-1cb8dec6b125
Depto Con 2d+1b+ Terraza, Estac. Y Bodega. A Pasos Del Metro, Bogotá - Sierra Bella, Santiago, RM (Metropolitana)|2800|60|2|1|-33.4592149|-70.6396141|https://www.portalinmobiliario.com/MLC-2373344742-depto-con-2d1b-terraza-estac-y-bodega-a-pasos-del-metro-_JM#position=29&search_layout=grid&type=item&tracking_id=5e8974c9-6d60-4df7-9e02-789d7654b321
Parque O'Higgins, Santiago, RM (Metropolitana)|1950|32|1|1|-33.466785|-70.6448876|https://www.portalinmobiliario.com/MLC-1470310705-vendo-departamento-cercano-al-metro-san-alberto-hurtado-_JM#position=36&search_layout=grid&type=item&tracking_id=c0ca3a4d-16e8-4b3e-a32c-ca17797820c3
Departamento En Venta 1 Dormitorio 1 Baño, Tarapaca Esquina Serrano, Bulnes, Santiago, RM (Metropolitana)|1900|35|1|1|-33.4471055|-70.6487843|https://www.portalinmobiliario.com/MLC-1465730207-departamento-en-venta-de-1-dorm1-bano-santiago-centro-_JM#position=39&search_layout=grid&type=item&tracking_id=f24f6532-afea-4963-9918-2c229fe3edb6
Huérfanos 1919, Santiago, Chile, Barrio Brasil, Santiago, RM (Metropolitana)|2992|0|1|2|-33.4406318|-70.6638406|https://www.portalinmobiliario.com/MLC-2258488048-departamento-en-plaza-brasil-_JM#position=5&search_layout=grid&type=item&tracking_id=9b63cc9a-bb9f-4622-af73-96d5c6576b07
|0|0|0|0|||https://www.portalinmobiliario.com/MLC-1478376791-venta-departamento-santiago-2-dorm-metro-parque-ohiggins-_JM#position=5&search_layout=grid&type=item&tracking_id=22c846a4-8db2-4cdf-9360-cb3db1e09ce6
Santa Elena 1722, Santiago, Chile, Bogotá - Sierra Bella, Santiago, RM (Metropolitana)|3150|65|3|2|-33.4663656|-70.6278835|https://www.portalinmobiliario.com/MLC-2209056520-lindo-depto-recien-pintado-a-pasos-metro-nuble-_JM#position=41&search_layout=grid&type=item&tracking_id=0770310a-699f-4ed7-93b8-99c88ca2db6e
Av Matta / Santa Elena, Barrio Diez de Julio, Santiago, RM (Metropolitana)|2590|36|1|1|-33.4555355|-70.6310579|https://www.portalinmobiliario.com/MLC-1456409067-departamento-en-venta-1d-1b-1bod-en-santiago-_JM#position=15&search_layout=grid&type=item&tracking_id=f04286ff-65e1-4cdb-bcf5-23b1c42ef423
Arturo Prat, San Diego, Santiago, RM (Metropolitana)|3225|55|2|2|-33.4504328|-70.6493301|https://www.portalinmobiliario.com/MLC-2172283206-departamento-arturo-prat-id-83050-_JM#position=48&search_layout=grid&type=item&tracking_id=fd97811e-d002-470c-ac7f-054d1c8a50ab
San Isidro Con Santa Isabel, Santa Isabel, Santiago, RM (Metropolitana)|3300|1|2|2|-33.4503592|-70.6430488|https://www.portalinmobiliario.com/MLC-2375731004-oportunidad-de-inversion-stgo-centro-_JM#position=3&search_layout=grid&type=item&tracking_id=ae078f09-9f02-426a-a7a3-c76c48996a6a
(fnb) Lord Cochrane Esquina Condór, Parque Almagro, Santiago, RM (Metropolitana)|2790|34|1|1|-33.4503521|-70.6545765|https://www.portalinmobiliario.com/MLC-1458863913-departamento-en-venta-de-1-dorm-en-santiago-_JM#position=28&search_layout=grid&type=item&tracking_id=7e67677d-67e7-455f-9c49-9965ef8a9c64
San Isidro 234, Santiago, Chile, Santa Isabel, Santiago, RM (Metropolitana)|1800|30|1|1|-33.4464898|-70.6435322|https://www.portalinmobiliario.com/MLC-1469798273-oportunidad-metro-santa-lucia-1-dormitorio-_JM#position=36&search_layout=grid&type=item&tracking_id=a41fa647-0bae-4ea6-9ec5-79625c9e43ea
José Miguel Carrera 300 - 600, Santiago, Chile, Ejército - Toesca, Santiago, RM (Metropolitana)|2350|37|1|1|-33.4530357|-70.663364|https://www.portalinmobiliario.com/MLC-1453275307-oportunidad-inversionista-a-pasos-del-metro-toesca-_JM#position=7&search_layout=grid&type=item&tracking_id=0aca173a-8391-45d9-af8f-2b97882ec3d4
Huérfanos 1500 - 1800, Santiago, Chile, Barrio Brasil, Santiago, RM (Metropolitana)|3494|70|3|2|-33.4405701|-70.6608152|https://www.portalinmobiliario.com/MLC-1463247727-estupendo-departamento-huerfanos-basilica-del-salvador-_JM#position=24&search_layout=grid&type=item&tracking_id=9b63cc9a-bb9f-4622-af73-96d5c6576b07
Vicuña Mackenna / Ñuble, Bogotá - Sierra Bella, Santiago, RM (Metropolitana)|1890|38|2|1|-33.4663656|-70.6278835|https://www.portalinmobiliario.com/MLC-2131637922-departamento-en-venta-de-2-dorm-en-santiago-_JM#position=5&search_layout=grid&type=item&tracking_id=b61a227c-11e1-43a5-8f75-1d77877e37d2
Manuel Rodríguez Con Moneda, Centro Histórico de Santiago, Santiago, RM (Metropolitana)|1940|39|1|1|-33.442877|-70.6599793|https://www.portalinmobiliario.com/MLC-2383653036-centrico-departamento-a-pasos-del-metro-los-heroes-viva-fa-_JM#position=48&search_layout=grid&type=item&tracking_id=ae1335c0-532c-4857-990d-ae7ab8932df4
Nataniel Cox/santiago, Parque O'Higgins, Santiago, RM (Metropolitana)|1850|38|1|1|-33.4627601|-70.6509893|https://www.portalinmobiliario.com/MLC-2338753216-departamento-nataniel-coxsantiago-_JM#position=27&search_layout=grid&type=item&tracking_id=67e6b74e-2e3d-452a-96a0-4e68d9a1f502
Avenida Presidente Balmaceda 2088, Santiago, Chile, Parque Los Reyes, Santiago, RM (Metropolitana)|3590|80|3|2|-33.4304602|-70.6664136|https://www.portalinmobiliario.com/MLC-1445638559-departamento-parque-los-reyes-barrio-balmaceda-_JM#position=19&search_layout=grid&type=item&tracking_id=184bf467-db98-4bf4-85e2-918796730ae5
Mac-iver/ Moneda, Centro Histórico de Santiago, Santiago, RM (Metropolitana)|1800|43|1|1|-33.4414244|-70.6466042|https://www.portalinmobiliario.com/MLC-1468875465-venta-departamento-santiago-de-1-dormitorio-metro-sta-lucia-_JM#position=15&search_layout=grid&type=item&tracking_id=70171495-6ecf-41cc-9b60-37e09ca4a4d2
Metro Santa Ana, Centro Histórico de Santiago, Santiago, RM (Metropolitana)|3100|49|2|2|-33.4403546|-70.6567062|https://www.portalinmobiliario.com/MLC-1452831807-departamento-en-venta-de-2-dorm-estac-y-bodega-en-santiago-_JM#position=29&search_layout=grid&type=item&tracking_id=e468ac46-7985-4564-a354-7d033d847bf0
Avenida Vicuña Mackenna 881, Santiago, Chile, Barrio Diez de Julio, Santiago, RM (Metropolitana)|1580|30|1|1|-33.4530321|-70.6308303|https://www.portalinmobiliario.com/MLC-1460267759-liquido-departamento-studio-muy-bien-ubicado-_JM#position=2&search_layout=grid&type=item&tracking_id=4b872dc1-63ee-4ec3-ab22-0e29dcb93d4f
Barrio República, Santiago, RM (Metropolitana)|3225|49|2|2|-33.448889|-70.669265|https://www.portalinmobiliario.com/MLC-1475893701-venta-departamento-en-santiago-centro-moderno-_JM#position=3&search_layout=grid&type=item&tracking_id=dd4f2cbc-ac44-49e7-a344-ceee4576a4c8
Avenida Brasil 600 - 900, Santiago, Chile, Parque Los Reyes, Santiago, RM (Metropolitana)|1658|31|1|1|-33.4337782|-70.6646651|https://www.portalinmobiliario.com/MLC-2333870042-departamento-1d1b-31m2-metro-santa-ana-futuro-metro-l7-_JM#position=6&search_layout=grid&type=item&tracking_id=1a136d2e-b24f-4d7c-b8ab-c2d2b0471a40
Venta Departamento 2 Dormitorios, Metro Santa Ana, Santiago, Centro Histórico de Santiago, Santiago, RM (Metropolitana)|2400|49|2|1|-33.4356621|-70.6588246|https://www.portalinmobiliario.com/MLC-2345541302-venta-departamento-2-dormitorios-metro-santa-ana-santiago-_JM#position=7&search_layout=grid&type=item&tracking_id=66bc2cea-04f4-46ec-af43-44861db2ec3d
Carmen / 2d Y 2b, Santa Isabel, Santiago, RM (Metropolitana)|3900|67|2|2|-33.4453961|-70.6429401|https://www.portalinmobiliario.com/MLC-1441222809-departamento-en-venta-de-2-dorm-en-santiago-_JM#position=4&search_layout=grid&type=item&tracking_id=6e3b6d58-9d4d-4192-9f0c-0de757ab7d35
Ñuble, San Diego, Arturo Prat,, Franklin - Biobío, Santiago, RM (Metropolitana)|1935|32|1|1|-33.4707988|-70.6478797|https://www.portalinmobiliario.com/MLC-1461702693-departamento-en-venta-en-santiago-_JM#position=42&search_layout=grid&type=item&tracking_id=eea918e5-ee32-469b-8390-edf757239b31
Barrio Diez de Julio, Santiago, RM (Metropolitana)|3600|73|3|2|-33.451607|-70.640893|https://www.portalinmobiliario.com/MLC-2326991564-se-vende-departamento-santiago-centro-_JM#position=41&search_layout=grid&type=item&tracking_id=69bec6bd-6a7c-4f18-b658-5ec9b236d1c1
San Martin 870, Centro Histórico de Santiago, Santiago, RM (Metropolitana)|1600|24|1|1|-33.4337536|-70.6591585|https://www.portalinmobiliario.com/MLC-2388740980-refv9735-depto-promo-1-hab-1-bano-metro-santa-a-_JM#position=1&search_layout=grid&type=item&tracking_id=cb989e76-6b87-4c2f-a702-bd2fce358c1a
Parque Almagro, Santiago, RM (Metropolitana)|2800|57|2|2|-33.4509221|-70.650798|https://www.portalinmobiliario.com/MLC-2207661570-mencia-de-los-nidos-1111-mencia-de-los-nidos-_JM#position=38&search_layout=grid&type=item&tracking_id=1bf44437-986d-4cfe-8f9c-77f07a1dd275
Avenida San Pablo, 1500, Centro Histórico de Santiago, Santiago, RM (Metropolitana)|3700|60|2|2|-33.4344051|-70.659408|https://www.portalinmobiliario.com/MLC-2326605428-venta-departamento-2hab-2ba-santiago-_JM#position=37&search_layout=grid&type=item&tracking_id=e468ac46-7985-4564-a354-7d033d847bf0
Avenida Santa Isabel 199, Santiago, Chile, Santa Isabel, Santiago, RM (Metropolitana)|3900|57|3|2|-33.4478017|-70.6343378|https://www.portalinmobiliario.com/MLC-2322896498-uf-3900-vendo-hermoso-departamento-en-santa-isabel-_JM#position=43&search_layout=grid&type=item&tracking_id=162b65d3-5ff2-4403-98f6-2babfe1e82fe
Manuel Antonio Tocornal 601, Santiago, Chile, Santa Isabel, Santiago, RM (Metropolitana)|2661|58|2|1|-33.4506766|-70.6400078|https://www.portalinmobiliario.com/MLC-1447438323-metro-sta-lucia-financio-pie-hasta-48-cuotas-sin-interes-_JM#position=3&search_layout=grid&type=item&tracking_id=ef61270b-cd58-4502-9b81-583dd0b0a3a3
Tarapaca/serrano, Bulnes, Santiago, RM (Metropolitana)|2100|39|1|1|-33.4471998|-70.6484014|https://www.portalinmobiliario.com/MLC-2381971050-tarapacaserrano-_JM#position=25&search_layout=grid&type=item&tracking_id=a68ff074-f63f-473d-989f-fc0b4c4b2072
Atractiva Oportunidad De Inversión Depto Studio M.irarrazaba, Barrio Diez de Julio, Santiago, RM (Metropolitana)|1350|17|1|1|-33.4511546|-70.6332636|https://www.portalinmobiliario.com/MLC-1468066319-atractiva-oportunidad-de-inversion-depto-studio-mirarrazaba-_JM#position=27&search_layout=grid&type=item&tracking_id=4b872dc1-63ee-4ec3-ab22-0e29dcb93d4f
Santa Victoria 360, Santa Isabel, Santiago, RM (Metropolitana)|3900|62|2|2|-33.447863|-70.6381078|https://www.portalinmobiliario.com/MLC-1461853507-departamento-en-venta-de-2-dorm-en-santiago-_JM#position=3&search_layout=grid&type=item&tracking_id=0b042aba-594b-4c16-97f8-db33c237c16a
Santiago Concha 1.148, Bogotá - Sierra Bella, Santiago, RM (Metropolitana)|2900|61|2|2|-33.4584432|-70.6401986|https://www.portalinmobiliario.com/MLC-2359224022-departamento-en-venta-de-2-dormitorios-en-santiago-_JM#position=36&search_layout=grid&type=item&tracking_id=3d7f6e32-fa6b-4bfe-bb60-e2ccc3d34c09
San Martín, Santiago, Chile, Centro Histórico de Santiago, Santiago, RM (Metropolitana)|2500|43|1|1|-33.438641|-70.6581827|https://www.portalinmobiliario.com/MLC-2311132274-en-venta-departamento-en-san-martin-santiago-_JM#position=43&search_layout=grid&type=item&tracking_id=4d43185c-3bd9-4eb9-9ecb-e8325d08f967
Venta Departamento En Lira Con Sta Victoria, Santa Isabel, Santiago, RM (Metropolitana)|2672|50|2|2|-33.4479616|-70.6396409|https://www.portalinmobiliario.com/MLC-1478564095-venta-departamento-en-lira-con-sta-victoria-18783-_JM#position=40&search_layout=grid&type=item&tracking_id=6d4e128f-5275-4e06-8d7e-0c438f1d2669
Avenida Portugal 300 - 600, Santiago, Chile, Santa Isabel, Santiago, RM (Metropolitana)|2800|58|2|2|-33.4491606|-70.6348078|https://www.portalinmobiliario.com/MLC-1477026257-portugal-2d-2b-metro-santa-isabel-_JM#position=20&search_layout=grid&type=item&tracking_id=1876426f-c6ea-4154-89ed-ecf6891ff8ae
Coquimbo 1331, Santiago, Chile, Parque Almagro, Santiago, RM (Metropolitana)|3494|75|3|2|-33.4573226|-70.6524361|https://www.portalinmobiliario.com/MLC-1436554299-coquimbo-nataniel-_JM#position=18&search_layout=grid&type=item&tracking_id=ad89b61c-35d9-4370-9a9f-5c52e7f12fa2
Centro Histórico de Santiago, Santiago, RM (Metropolitana)|2300|0|1|1|-33.436263|-70.654999|https://www.portalinmobiliario.com/MLC-1466525541-venta-departamento-para-inversion-_JM#position=3&search_layout=grid&type=item&tracking_id=10db1378-c25e-42a5-b41c-9af1cae34928
Santa Ana, Bogotá - Sierra Bella, Santiago, RM (Metropolitana)|3607|53|2|1|-33.4658524|-70.6280663|https://www.portalinmobiliario.com/MLC-1458283615-santa-ana-_JM#position=7&search_layout=grid&type=item&tracking_id=34ecf2cd-8e9a-46f6-b079-e8a3289cf79c
Avenida Santa Rosa 991, Santiago, Chile, San Diego, Santiago, RM (Metropolitana)|2150|48|2|1|-33.4568272|-70.6438743|https://www.portalinmobiliario.com/MLC-1446962079-departamento-metro-matta-_JM#position=45&search_layout=grid&type=item&tracking_id=a0ed4bad-7e3b-43f2-877e-778507114d97
Avenida Santa Rosa, San Diego, Santiago, RM (Metropolitana)|1800|25|1|1|-33.4485677|-70.6452174|https://www.portalinmobiliario.com/MLC-2195348936-departamento-avenida-santa-rosa-id-110864-_JM#position=3&search_layout=grid&type=item&tracking_id=13777f65-dacc-4b37-b57f-c538378a588b
Catedral 1582, Centro Histórico de Santiago, Santiago, RM (Metropolitana)|3240|60|2|2|-33.4383859|-70.6593388|https://www.portalinmobiliario.com/MLC-2197268802-refv1351-venta-dpto-2d-2bestac-metro-santa-_JM#position=43&search_layout=grid&type=item&tracking_id=66bc2cea-04f4-46ec-af43-44861db2ec3d
San Pablo - San Martín, Centro Histórico de Santiago, Santiago, RM (Metropolitana)|3700|56|2|2|-33.4344051|-70.659408|https://www.portalinmobiliario.com/MLC-2162316462-metro-santa-ana-venta-depto-estilo-mariposa-san-pablo-_JM#position=18&search_layout=grid&type=item&tracking_id=9edf42cc-b6d9-4871-ad16-be4d2119ff26
Avenida Santa Rosa 249, Santiago, Chile, Santa Isabel, Santiago, RM (Metropolitana)|1478|30|1|1|-33.4471419|-70.644981|https://www.portalinmobiliario.com/MLC-2370030716-se-vende-hermoso-depto-1d1b-en-santiago-centro-_JM#position=13&search_layout=grid&type=item&tracking_id=92f3fbc4-b221-4e2a-9eeb-264c988d4092
Metro Baquedano L1 Y L5, Barrio San Borja, Santiago, RM (Metropolitana)|4650|60|2|2|-33.4392004|-70.6365273|https://www.portalinmobiliario.com/MLC-1478360157-venta-dpto-2d-2b-43e-43bodega-metro-baquedano-_JM#position=1&search_layout=grid&type=item&tracking_id=a8c2002b-11fb-4c60-813d-ee8b70250e71
(mgg) Avenida España , Santiago 2d1b, Barrio República, Santiago, RM (Metropolitana)|3959|48|2|1|-33.4561601|-70.6681038|https://www.portalinmobiliario.com/MLC-1460206849-en-venta-de-2-dorm-cercano-a-avespana-santiago-_JM#position=32&search_layout=grid&type=item&tracking_id=13999c8a-d1f2-4118-9b20-8e946852e19a
Abate Molina /sazie, Barrio República, Santiago, RM (Metropolitana)|2400|36|1|1|-33.4519986|-70.6719378|https://www.portalinmobiliario.com/MLC-1451876503-venta-departamento-santiago-metro-ula-1-dormitorio-_JM#position=1&search_layout=grid&type=item&tracking_id=702cf2da-f4c2-4d0e-bdbd-db67b33318f6
Santiago Centro, Santiago, Chile, Centro Histórico de Santiago, Santiago, RM (Metropolitana)|3225|48|2|2|-33.4452217|-70.6573657|https://www.portalinmobiliario.com/MLC-1457731275-depto-a-cuadras-de-alameda-_JM#position=15&search_layout=grid&type=item&tracking_id=49943384-f989-4205-b91b-6e8f87608dc8
Carmen, Barrio Diez de Julio, Santiago, RM (Metropolitana)|3500|56|2|2|-33.4519088|-70.6407025|https://www.portalinmobiliario.com/MLC-1445161521-departamento-en-venta-de-2-dorm-en-santiago-_JM#position=36&search_layout=grid&type=item&tracking_id=9ec44c88-b33f-4be0-8f6e-6ec08935bd26
Santo Domingo, Barrio Yungay, Santiago, RM (Metropolitana)|2287|20|1|1|-33.4379901|-70.6756935|https://www.portalinmobiliario.com/MLC-1477334921-departamento-santo-domingo-id-125892-_JM#position=7&search_layout=grid&type=item&tracking_id=ff92b774-f9a3-4da1-80ae-913748c65dce
Vendo Centrico Departamento(recibo Ofertas), Santa Isabel, Santiago, RM (Metropolitana)|1900|32|1|1|-33.4480808|-70.6399823|https://www.portalinmobiliario.com/MLC-1476188219-vendo-centrico-departamentorecibo-ofertas-_JM#position=8&search_layout=grid&type=item&tracking_id=4f2f3afc-fd1f-4279-ad64-dd088f01bc11
Oportunidad De Inversión! Financiamos 15%, Franklin - Biobío, Santiago, RM (Metropolitana)|1900|30|2|1|-33.4707988|-70.6478796|https://www.portalinmobiliario.com/MLC-2367312128-oportunidad-de-inversion-financiamos-15-19758-_JM#position=4&search_layout=grid&type=item&tracking_id=345d233d-17bc-4f9e-98cc-415c0712bb97
Avenida Santa Isabel 747, Santiago, Chile, San Diego, Santiago, RM (Metropolitana)|3250|62|2|2|-33.4505313|-70.6457303|https://www.portalinmobiliario.com/MLC-2324697686-departamento-con-ubicacion-perfecta-estacionamiento-propio-_JM#position=5&search_layout=grid&type=item&tracking_id=21a7b49d-9a90-4875-b5af-f4802f43c525
Mac Iver/santo Domingo, Centro Histórico de Santiago, Santiago, RM (Metropolitana)|1990|34|1|1|-33.4357452|-70.6480792|https://www.portalinmobiliario.com/MLC-1465400677-departamento-en-venta-de-1-dorm-en-santiago-_JM#position=4&search_layout=grid&type=item&tracking_id=b1a63316-4ad1-4d30-bb63-4d97a68b3f3c
Av Matta, 1 - 300, Bogotá - Sierra Bella, Santiago, RM (Metropolitana)|1900|30|1|1|-33.455879|-70.630686|https://www.portalinmobiliario.com/MLC-2325880810-se-vende-depto-1d-1b-metro-irarrazabal-_JM#position=14&search_layout=grid&type=item&tracking_id=feed9058-fd81-49fc-b95e-4ff3f7520f6a
Bandera / General Mackenna 15, Centro Histórico de Santiago, Santiago, RM (Metropolitana)|3080|54|2|2|-33.4333175|-70.6533075|https://www.portalinmobiliario.com/MLC-2117712694-departamento-bandera-general-mackenna-15-id-94630-_JM#position=15&search_layout=grid&type=item&tracking_id=53c24ed8-8154-483a-b32b-25ed7ae1a889
Lord Cochrane Con Tarapaca, Bulnes, Santiago, RM (Metropolitana)|2000|34|1|1|-33.4487684|-70.6552323|https://www.portalinmobiliario.com/MLC-2248037400-departamento-en-venta-1-dormitoriosantiago-metro-moneda-_JM#position=2&search_layout=grid&type=item&tracking_id=98d86d59-1cf9-435d-bf9f-4b9f369b3137
Santo Domingo 1355, Santiago, Región Metropolitana, Chile, Centro Histórico de Santiago, Santiago, RM (Metropolitana)|5900|114|3|3|-33.4366741|-70.6564489|https://www.portalinmobiliario.com/MLC-2051088118-centro-historico-3dorm-3banos-2estac-1bodega-danacorp-_JM#position=20&search_layout=grid&type=item&tracking_id=70171495-6ecf-41cc-9b60-37e09ca4a4d2
General Jofré 307, Santiago, Chile, Santa Isabel, Santiago, RM (Metropolitana)|2400|39|1|1|-33.4451393|-70.6367779|https://www.portalinmobiliario.com/MLC-2137527098-oportunidad-de-inversion-metro-bustamante-general-jofre-_JM#position=48&search_layout=grid&type=item&tracking_id=a41fa647-0bae-4ea6-9ec5-79625c9e43ea
Santa Isabel, Santiago, RM (Metropolitana)|1940|36|1|1|-33.44824|-70.643733|https://www.portalinmobiliario.com/MLC-2135023098-departamento-se-vende-en-santiago-centro-_JM#position=20&search_layout=grid&type=item&tracking_id=00fd1c14-15ca-45b1-8deb-44cba1879f11
Eleuterio Ramírez 710, Departamento 603, Santiago, Chile, San Diego, Santiago, RM (Metropolitana)|3763|61|3|2|-33.4482405|-70.6451477|https://www.portalinmobiliario.com/MLC-1455252363-depto-amplio-3-dormitorios-2-bano-living-terraza-_JM#position=43&search_layout=grid&type=item&tracking_id=b3438752-47ff-4f8e-8a29-dbd7c7157c52
Merced 300 - 600, Santiago, Chile, Barrio Lastarria, Santiago, RM (Metropolitana)|6990|260|3|3|-33.4376597|-70.6427633|https://www.portalinmobiliario.com/MLC-2120616774-merced-metro-bellas-artes-soleado-duplex-ideal-remodelar-_JM#position=32&search_layout=grid&type=item&tracking_id=6b3fb110-652b-47a5-8704-cc0807131d52
Enrique Mac Iver 22, Centro Histórico de Santiago, Santiago, RM (Metropolitana)|2956|52|1|1|-33.4423779|-70.6464494|https://www.portalinmobiliario.com/MLC-1473114741-vendo-departamento-en-metro-santa-lucia-_JM#position=9&search_layout=grid&type=item&tracking_id=8e1e43a1-f400-47ac-893c-199de89563b4
Manuel Antonio Tocornal 601, Santiago, Chile, Santa Isabel, Santiago, RM (Metropolitana)|2400|42|2|1|-33.451005|-70.640001|https://www.portalinmobiliario.com/MLC-1446600021-precio-rebajado-con-estacionamiento-2-dormitorios-1-bano-_JM#position=35&search_layout=grid&type=item&tracking_id=68af4bd7-e50c-4466-9cc9-6981513ff78d
Fray Camilo Henríquez 190, Santiago, Chile, Santa Isabel, Santiago, RM (Metropolitana)|2600|50|2|1|-33.4443636|-70.6353655|https://www.portalinmobiliario.com/MLC-1477364723-departamento-excelente-ubicacion-centro-historico-santiago-_JM#position=39&search_layout=grid&type=item&tracking_id=1717326b-7b75-48ab-86e0-9eb4ce8f574c
Departamento En Santiago (1d+1b), San Diego, Santiago, RM (Metropolitana)|2750|34|1|1|-33.4532512|-70.6485811|https://www.portalinmobiliario.com/MLC-1478210973-departamento-en-santiago-1d1b-7619-_JM#position=46&search_layout=grid&type=item&tracking_id=89e952a9-a81f-45d4-83b3-f404e1f577b6
Serrano Con Eyzaguirre, San Diego, Santiago, RM (Metropolitana)|3300|42|2|2|-33.4524724|-70.6479555|https://www.portalinmobiliario.com/MLC-1442245575-dpto-en-venta-2d2b-santiago-centro-metro-parque-almagro-_JM#position=34&search_layout=grid&type=item&tracking_id=13777f65-dacc-4b37-b57f-c538378a588b
Santa Elena 1760, Bogotá - Sierra Bella, Santiago, RM (Metropolitana)|2300|30|1|1|-33.466972|-70.627869|https://www.portalinmobiliario.com/MLC-2291509712-edificio-santa-elena-vista-nororiente-piso-18-_JM#position=23&search_layout=grid&type=item&tracking_id=88f210af-410b-440c-bd0f-b2e479178e41
Almirante Latorre 402, Santiago, Chile, Ejército - Toesca, Santiago, RM (Metropolitana)|2650|52|2|2|-33.4528212|-70.6643048|https://www.portalinmobiliario.com/MLC-2367411144-tu-nuevo-hogar-en-almirante-latorre-402-_JM#position=26&search_layout=grid&type=item&tracking_id=db30c598-8243-46f2-b282-0e01a6df22bc
Departamento En Venta En Santiago, Ejército - Toesca, Santiago, RM (Metropolitana)|2900|54|2|1|-33.4538001|-70.6630414|https://www.portalinmobiliario.com/MLC-1475208255-departamento-en-venta-en-santiago-19910-_JM#position=36&search_layout=grid&type=item&tracking_id=d3d923c6-bf97-4816-a99f-80211895a8ae
Lord Cochrane 1431, Santiago, Chile, Parque O'Higgins, Santiago, RM (Metropolitana)|1478|33|1|1|-33.465072|-70.652978|https://www.portalinmobiliario.com/MLC-1471071713-venta-1-dorm-santiago-centro-sin-comision-_JM#position=21&search_layout=grid&type=item&tracking_id=92e60104-7d52-460c-8ad7-967871aeb542
San Diego, Santiago, RM (Metropolitana)|2300|42|1|1|-33.449153|-70.649709|https://www.portalinmobiliario.com/MLC-2341194724-se-vende-departamento-santiago-_JM#position=20&search_layout=grid&type=item&tracking_id=fd97811e-d002-470c-ac7f-054d1c8a50ab
