direccion|precio_uf|metros_cuadrados|dormitorios|banios|latitude|longitude|url
|2700|0|0|0|||https://www.portalinmobiliario.com/MLC-2371341728-venta-departamento-2hab-2ba-santiago-_JM#position=30&search_layout=grid&type=item&tracking_id=101a90e7-e1a4-4b22-a237-fd30b843ae5b
Huérfanos 300 - 600, Santiago, Chile, Centro Histórico de Santiago, Santiago, RM (Metropolitana)|5900|195|3|1|-33.4391632|-70.6445315|https://www.portalinmobiliario.com/MLC-1458871397-duplex-grandes-terrazas-en-bellas-artes-_JM#position=32&search_layout=grid&type=item&tracking_id=bd9e874a-566e-485f-93cd-a1c587410e63
Bulnes, Santiago, RM (Metropolitana)|2096|40|2|1|-33.448226|-70.646893|https://www.portalinmobiliario.com/MLC-2347987358-depto-san-francisco-eleuterio-ramirez-_JM#position=47&search_layout=grid&type=item&tracking_id=3029b441-1c74-48ca-88eb-caf6ddcbd5a9
San Pablo 2002, Santiago, Chile, Barrio Brasil, Santiago, RM (Metropolitana)|1961|55|2|2|-33.4348924|-70.6649957|https://www.portalinmobiliario.com/MLC-2238925512-oportunidad-depto-para-inversion-en-san-pablo-con-brasil-_JM#position=12&search_layout=grid&type=item&tracking_id=1bdbfddc-f1a0-4b7b-ae67-70a318523365
Eyzaguirre 800, Santiago, Chile, San Diego, Santiago, RM (Metropolitana)|1355|35|1|1|-33.4520942|-70.6465239|https://www.portalinmobiliario.com/MLC-2149851914-gran-oferta-se-vende-home-office-totalmente-amoblado-en-san-_JM#position=10&search_layout=grid&type=item&tracking_id=d2548354-e2f9-417c-b525-a595a550e10c
San Isidro 345, Santiago, Chile, Santa Isabel, Santiago, RM (Metropolitana)|2096|45|1|1|-33.4484391|-70.643731|https://www.portalinmobiliario.com/MLC-2269017690-depto-1-dorm-1-bano-bodega-en-san-isidro-santiago-centro-_JM#position=42&search_layout=grid&type=item&tracking_id=d50bcaf6-3b54-4598-affe-0fc55aa81089
Compañía De Jesús 1525, Santiago, Chile, Centro Histórico de Santiago, Santiago, RM (Metropolitana)|1343|27|1|1|-33.4391647|-70.6585232|https://www.portalinmobiliario.com/MLC-2254252548-centrico-departamento-1-dormitorio-1-bano-balcon-stgo-centro-_JM#position=9&search_layout=grid&type=item&tracking_id=139930be-c85f-41a0-af1f-a7c904327274
Recien Remodelado. Oportunidad Con Vista Despejada, Santa Isabel, Santiago, RM (Metropolitana)|2990|56|2|2|-33.4489123|-70.6436613|https://www.portalinmobiliario.com/MLC-2255661856-recien-remodelado-oportunidad-con-vista-despejada-_JM#position=33&search_layout=grid&type=item&tracking_id=00fd1c14-15ca-45b1-8deb-44cba1879f11
San Diego, Parque O'Higgins, Santiago, RM (Metropolitana)|2150|37|2|1|-33.4629535|-70.6487813|https://www.portalinmobiliario.com/MLC-2370703898-departamento-san-diego-id-125104-_JM#position=39&search_layout=grid&type=item&tracking_id=92e60104-7d52-460c-8ad7-967871aeb542
Lord Cochrane/ Tarapacá, Bulnes, Santiago, RM (Metropolitana)|1827|27|1|1|-33.4485615|-70.6544415|https://www.portalinmobiliario.com/MLC-1463414457-venta-departamento-1-dorm-en-santiago-_JM#position=14&search_layout=grid&type=item&tracking_id=3029b441-1c74-48ca-88eb-caf6ddcbd5a9
Bandera 898, Santiago, Chile, Centro Histórico de Santiago, Santiago, RM (Metropolitana)|2518|47|2|2|-33.4334876|-70.6532646|https://www.portalinmobiliario.com/MLC-1456310261-opotunidad-departamento-en-bandera-con-general-makenna-_JM#position=28&search_layout=grid&type=item&tracking_id=66bc2cea-04f4-46ec-af43-44861db2ec3d
Club Hípico 600 - 900, Santiago, Chile, Barrio República, Santiago, RM (Metropolitana)|2750|53|2|2|-33.4557771|-70.6653389|https://www.portalinmobiliario.com/MLC-2380365064-recien-renovado-2d-y-2b-_JM#position=32&search_layout=grid&type=item&tracking_id=dfa401a5-9e9e-4e75-8e65-fc63d4cbde22
Lira, Santa Isabel, Santiago, RM (Metropolitana)|2571|68|3|2|-33.4481135|-70.6399682|https://www.portalinmobiliario.com/MLC-2323578108-lira-_JM#position=14&search_layout=grid&type=item&tracking_id=92f3fbc4-b221-4e2a-9eeb-264c988d4092
Depto En Venta Blanco Encalada // Parque O'higgins, Ejército - Toesca, Santiago, RM (Metropolitana)|2015|37|1|1|-33.4565742|-70.6596382|https://www.portalinmobiliario.com/MLC-2381884088-departamento-en-venta-de-1-dorm-en-santiago-_JM#position=21&search_layout=grid&type=item&tracking_id=0aca173a-8391-45d9-af8f-2b97882ec3d4
San Isidro, Santa Isabel, Santiago, RM (Metropolitana)|2800|46|2|1|-33.4494226|-70.643407|https://www.portalinmobiliario.com/MLC-1474476843-departamento-en-venta-2-dorm-1-bano-en-santiago-oportunidad-_JM#position=13&search_layout=grid&type=item&tracking_id=a41fa647-0bae-4ea6-9ec5-79625c9e43ea
Vicuña Mackenna, Bogotá - Sierra Bella, Santiago, RM (Metropolitana)|2900|45|2|1|-33.4611462|-70.6286369|https://www.portalinmobiliario.com/MLC-2117660900-departamento-vicuna-mackenna-id-90872-_JM#position=1&search_layout=grid&type=item&tracking_id=3d7f6e32-fa6b-4bfe-bb60-e2ccc3d34c09
Vendo Departamento Inversionistas Santiago, Bulnes, Santiago, RM (Metropolitana)|1800|32|1|1|-33.446811|-70.6513763|https://www.portalinmobiliario.com/MLC-2378894744-vendo-departamento-inversionistas-santiago-13486-_JM#position=27&search_layout=grid&type=item&tracking_id=5ab6efbd-9e95-404b-aebf-e4f9c54ab53d
Lord Cochrane 298, Santiago, Chile, Bulnes, Santiago, RM (Metropolitana)|4200|67|3|2|-33.4499553|-70.6544733|https://www.portalinmobiliario.com/MLC-1463440043-ap-lord-cochrane-eleuterio-3-dormitorios-con-estac-y-bod-_JM#position=11&search_layout=grid&type=item&tracking_id=19fb1f01-4932-43df-907d-da92b14c9166
Serrano/santa Isabel, San Diego, Santiago, RM (Metropolitana)|1600|40|1|1|-33.4525264|-70.6478641|https://www.portalinmobiliario.com/MLC-2134991434-departamento-en-venta-de-1-dorm-en-santiago-_JM#position=9&search_layout=grid&type=item&tracking_id=72e2b5c7-ee9b-47b9-b4be-5de6ade046d0
Sta. Victoria, Santa Isabel, Santiago, RM (Metropolitana)|2990|54|2|2|-33.4479616|-70.6396409|https://www.portalinmobiliario.com/MLC-1458282141-departamento-en-venta-de-2-dorm-en-santiago-_JM#position=6&search_layout=grid&type=item&tracking_id=6e3b6d58-9d4d-4192-9f0c-0de757ab7d35
Ideal Inversion Barrio Universitario, Bogotá - Sierra Bella, Santiago, RM (Metropolitana)|1998|35|1|1|-33.4615868|-70.6385083|https://www.portalinmobiliario.com/MLC-1476575127-ideal-inversion-barrio-universitario-26919-_JM#position=45&search_layout=grid&type=item&tracking_id=5e8974c9-6d60-4df7-9e02-789d7654b321
Venta Depto 1 Hab Calle Serrano Metro Parque Almagro, San Diego, Santiago, RM (Metropolitana)|2150|34|1|1|-33.4524724|-70.6479555|https://www.portalinmobiliario.com/MLC-1457743857-venta-depto-1-hab-calle-serrano-metro-parque-almagro-_JM#position=43&search_layout=grid&type=item&tracking_id=72e2b5c7-ee9b-47b9-b4be-5de6ade046d0
Avenida Portugal 415 - Departamento 1706, Santa Isabel, Santiago, RM (Metropolitana)|2710|81|3|2|-33.4474106|-70.635849|https://www.portalinmobiliario.com/MLC-2286697082-excelente-departamento-piso-17-vista-full-despejada-_JM#position=30&search_layout=grid&type=item&tracking_id=5e123917-8ae4-4fbc-af57-c075ac0a25c3
San Pablo 1275, Santiago, Chile, Centro Histórico de Santiago, Santiago, RM (Metropolitana)|2700|54|2|2|-33.4342068|-70.6555109|https://www.portalinmobiliario.com/MLC-2388662920-liquidamos-oportunidad-con-bodega-y-estacionamiento-_JM#position=27&search_layout=grid&type=item&tracking_id=958c33f1-abd7-48a3-9d06-660520505b9d
Santiago Centro, San Diego, Santiago, RM (Metropolitana)|2900|51|2|2|-33.4507337|-70.6481942|https://www.portalinmobiliario.com/MLC-1473011433-departamento-en-venta-de-2-dorm-en-santiago-_JM#position=35&search_layout=grid&type=item&tracking_id=b3438752-47ff-4f8e-8a29-dbd7c7157c52
Metro Toesca / Parque O´higgins, Ejército - Toesca, Santiago, RM (Metropolitana)|4630|82|3|2|-33.4550084|-70.6629777|https://www.portalinmobiliario.com/MLC-1450294631-departamento-en-venta-de-3-dorm-en-santiago-_JM#position=17&search_layout=grid&type=item&tracking_id=d9cf5051-2805-4736-81f7-3a7a95513857
Nueva San Martín, 1590, Centro Histórico de Santiago, Santiago, RM (Metropolitana)|3650|60|2|2|-33.4409549|-70.6585416|https://www.portalinmobiliario.com/MLC-1477256395-venta-departamento-2hab-2ba-santiago-_JM#position=1&search_layout=grid&type=item&tracking_id=94019c35-55f3-434e-8982-8336f48c2228
San Pablo / General Bulnes / Metro Quinta Normal, Barrio Yungay, Santiago, RM (Metropolitana)|2375|35|1|1|-33.4349732|-70.6709439|https://www.portalinmobiliario.com/MLC-1440460109-departamento-en-venta-de-1-dorm-en-santiago-_JM#position=13&search_layout=grid&type=item&tracking_id=52c66a21-3a5f-4481-aa8b-cc047b745c78
San Ignacio / Duplex / Metro Parque Ohiggins, Parque O'Higgins, Santiago, RM (Metropolitana)|3225|120|4|2|-33.4610017|-70.655577|https://www.portalinmobiliario.com/MLC-2062459794-departamento-en-venta-de-4-dorm-en-santiago-_JM#position=28&search_layout=grid&type=item&tracking_id=b2ec1abd-3dbc-4307-84f4-db2442c167f8
Sazie / 1 D &#43; 1 B, Ejército - Toesca, Santiago, RM (Metropolitana)|1998|39|1|1|-33.4503449|-70.6639216|https://www.portalinmobiliario.com/MLC-1451214497-sazie-1-d-43-1-b-_JM#position=27&search_layout=grid&type=item&tracking_id=b05586f8-2e03-41b0-89b8-331f8affd440
San Isidro 600 - 900, Santiago, Chile, Barrio Diez de Julio, Santiago, RM (Metropolitana)|1411|32|1|1|-33.4520413|-70.6426531|https://www.portalinmobiliario.com/MLC-1468705453-san-isidro-a-pasos-de-santa-isabel-_JM#position=9&search_layout=grid&type=item&tracking_id=b7926041-5dfe-4da6-8510-47a42ad4baa0
Santa Isabel/ Vicuña Mackenna, Santa Isabel, Santiago, RM (Metropolitana)|2190|32|1|1|-33.4483596|-70.6322635|https://www.portalinmobiliario.com/MLC-1463440321-venta-departamento-1-dorm-en-santiago-santa-isabel-_JM#position=1&search_layout=grid&type=item&tracking_id=1e42c180-41da-4212-b00e-acbbdb134c33
General Gana, Franklin - Biobío, Santiago, RM (Metropolitana)|1990|39|2|1|-33.4707734|-70.648008|https://www.portalinmobiliario.com/MLC-1451283747-departamento-general-gana-id-110431-_JM#position=48&search_layout=grid&type=item&tracking_id=eea918e5-ee32-469b-8390-edf757239b31
Esperanza, Parque Los Reyes, Santiago, RM (Metropolitana)|3495|68|3|2|-33.4269566|-70.676844|https://www.portalinmobiliario.com/MLC-2385855134-departamento-en-venta-de-3-dorm-en-santiago-_JM#position=32&search_layout=grid&type=item&tracking_id=22c846a4-8db2-4cdf-9360-cb3db1e09ce6
Eleuterio Ramírez 825, Santiago, Chile, Bulnes, Santiago, RM (Metropolitana)|3540|76|3|2|-33.4483639|-70.6473188|https://www.portalinmobiliario.com/MLC-2111402692-amplio-departamento-en-eleuterio-ramirez-santiago-_JM#position=22&search_layout=grid&type=item&tracking_id=7e8ec5ac-2a0f-4a76-b794-1e4d8f2968f1
Lord Cochrane 277, Santiago, Chile, Parque Almagro, Santiago, RM (Metropolitana)|2890|53|2|2|-33.4500977|-70.6547221|https://www.portalinmobiliario.com/MLC-1462481807-en-venta-depto-2d-2b-estacionamientolord-cochrane-stgo-_JM#position=24&search_layout=grid&type=item&tracking_id=ccb1f7be-333a-41ae-a4ed-4846f99c10f7
Santo Domingo, Barrio Brasil, Santiago, RM (Metropolitana)|2350|33|1|1|-33.4375251|-70.6619002|https://www.portalinmobiliario.com/MLC-2117687120-departamento-santo-domingo-id-45396-_JM#position=34&search_layout=grid&type=item&tracking_id=9b63cc9a-bb9f-4622-af73-96d5c6576b07
Avenida Portugal, Barrio Diez de Julio, Santiago, RM (Metropolitana)|3500|65|2|2|-33.4527332|-70.633843|https://www.portalinmobiliario.com/MLC-2117725486-departamento-avenida-portugal-id-57156-_JM#position=9&search_layout=grid&type=item&tracking_id=c90c8392-2534-4859-ae8c-cdf6a80846da
Comunidad Stgo Dowtown, Centro Histórico de Santiago, Santiago, RM (Metropolitana)|4800|77|3|2|-33.4436545|-70.6572871|https://www.portalinmobiliario.com/MLC-2350755724-comunidad-stgo-dowtown-_JM#position=40&search_layout=grid&type=item&tracking_id=cf516be5-79cc-42a9-9e55-a6a546ba85e4
|0|0|0|0|||https://www.portalinmobiliario.com/MLC-2373125900-departamento-con-2d-1b-cercano-a-metro-irarrazaval-_JM#position=11&search_layout=grid&type=item&tracking_id=4f4e1fc5-3644-4d6e-a5dc-89174a8d85c2
Matucana/mapocho, Barrio Yungay, Santiago, RM (Metropolitana)|1424|0|1|1|-33.4312646|-70.6804965|https://www.portalinmobiliario.com/MLC-1465047085-departamento-matucanamapocho-_JM#position=36&search_layout=grid&type=item&tracking_id=da4bba1b-0849-4dc7-a699-7f14cdbb36d3
Carmen Est Y Bod, Santa Isabel, Santiago, RM (Metropolitana)|2553|50|3|2|-33.4492169|-70.641824|https://www.portalinmobiliario.com/MLC-1453808329-carmen-est-y-bod-_JM#position=30&search_layout=grid&type=item&tracking_id=b7b94dda-a62c-4545-ae6f-499b2f0dce65
Inversión, Irarrázaval Con Bodega, Bogotá - Sierra Bella, Santiago, RM (Metropolitana)|2100|28|1|1|-33.4559859|-70.6300341|https://www.portalinmobiliario.com/MLC-1434604049-inversion-irarrazaval-con-bodega-_JM#position=46&search_layout=grid&type=item&tracking_id=1feaef49-5309-41cc-939b-0b2cd2306cac
¡oportunidad!/metro Matta, Barrio Diez de Julio, Santiago, RM (Metropolitana)|2100|30|1|1|-33.4568869|-70.6411016|https://www.portalinmobiliario.com/MLC-1476567167-departamento-oportunidadmetro-matta-_JM#position=43&search_layout=grid&type=item&tracking_id=f04286ff-65e1-4cdb-bcf5-23b1c42ef423
Portugal 415 - Departamento 1201, Santa Isabel, Santiago, RM (Metropolitana)|2080|38|1|1|-33.4473686|-70.6356964|https://www.portalinmobiliario.com/MLC-1454767789-excelente-depto-piso-12-vista-despejada-_JM#position=28&search_layout=grid&type=item&tracking_id=a41fa647-0bae-4ea6-9ec5-79625c9e43ea
Centro Histórico de Santiago, Santiago, RM (Metropolitana)|8900|180|3|2|-33.4392616|-70.6441959|https://www.portalinmobiliario.com/MLC-2325641610-maravilloso-dpto-con-vista-despejada-a-cerro-santa-lucia-_JM#position=30&search_layout=grid&type=item&tracking_id=84c27398-c5c1-449f-b543-ec3b2ad13dae
Gral Mackenna/ Amunategui, Centro Histórico de Santiago, Santiago, RM (Metropolitana)|3850|70|2|2|-33.4334063|-70.6571371|https://www.portalinmobiliario.com/MLC-2352593992-gral-mackenna-amunategui-_JM#position=15&search_layout=grid&type=item&tracking_id=3699db9e-8e7e-4aa9-8e0a-fe4f61e1f83b
Hermoso Departamento En Santiago Centro, Centro Histórico de Santiago, Santiago, RM (Metropolitana)|2430|50|0|2|-33.4452217|-70.6573657|https://www.portalinmobiliario.com/MLC-2376721438-departamento-en-venta-en-santiago-_JM#position=12&search_layout=grid&type=item&tracking_id=63c47a80-3763-4db2-a1b3-817ccd1539f1
Santa Isabel, Cercano A Colegios Y Universidad, San Diego, Santiago, RM (Metropolitana)|3200|60|2|2|-33.4506745|-70.6466544|https://www.portalinmobiliario.com/MLC-1477049157-santa-isabel-cercano-a-colegios-y-universidad-_JM#position=30&search_layout=grid&type=item&tracking_id=89e952a9-a81f-45d4-83b3-f404e1f577b6
Avenida Portugal, Santa Isabel, Santiago, RM (Metropolitana)|3150|66|3|2|-33.4479164|-70.6355675|https://www.portalinmobiliario.com/MLC-2117622546-departamento-avenida-portugal-id-56647-_JM#position=46&search_layout=grid&type=item&tracking_id=a641bcb9-690b-417a-9aef-71503f226b7a
Eleuterio Ramírez 1446, Santiago, Chile, Parque Almagro, Santiago, RM (Metropolitana)|1880|28|1|1|-33.450578|-70.6554553|https://www.portalinmobiliario.com/MLC-2362705196-dpto-1-dormitorio-eleuterio-ramirez-1446-santiago-_JM#position=8&search_layout=grid&type=item&tracking_id=0c81ca27-5b6d-4e81-a06d-cbca10b4a524
Morandé Y Santo Domingo, Centro Histórico de Santiago, Santiago, RM (Metropolitana)|2678|59|2|2|-33.4363473|-70.6541139|https://www.portalinmobiliario.com/MLC-2174530894-departamento-en-venta-de-2-dorm-con-dos-terrazas-y-1-estac-_JM#position=15&search_layout=grid&type=item&tracking_id=84b2d68f-4be8-446f-bd0e-3fb7685c8a61
Sargento Aldea 1500, Santiago, Chile, Parque O'Higgins, Santiago, RM (Metropolitana)|2300|48|3|1|-33.4694979|-70.6546037|https://www.portalinmobiliario.com/MLC-1475835375-3d-1b-estacionamiento-2-cuadras-metro-rondizzoni-_JM#position=45&search_layout=grid&type=item&tracking_id=92e60104-7d52-460c-8ad7-967871aeb542
Santa Isabel, Santiago, RM (Metropolitana)|2900|48|2|1|-33.4492216|-70.6341934|https://www.portalinmobiliario.com/MLC-2272037322-departamento-2-dormitorios-argomedo-_JM#position=29&search_layout=grid&type=item&tracking_id=db30c598-8243-46f2-b282-0e01a6df22bc
Carmen Con Victoria / Remodelado., Santa Isabel, Santiago, RM (Metropolitana)|3500|51|1|1|-33.4484975|-70.641523|https://www.portalinmobiliario.com/MLC-2335153254-departamento-en-venta-de-1-dorm-en-santiago-_JM#position=33&search_layout=grid&type=item&tracking_id=5de835be-8d08-4808-b8ad-98bffbb400d6
Lord Cochrane Esquina Victoria, Parque O'Higgins, Santiago, RM (Metropolitana)|1610|27|1|1|-33.465072|-70.652978|https://www.portalinmobiliario.com/MLC-2062440770-lord-cochrane-esquina-victoria-_JM#position=37&search_layout=grid&type=item&tracking_id=f1bd6114-0a14-48fe-8190-a1baa38d88fb
Metro Santa Ana, Barrio Brasil, Santiago, RM (Metropolitana)|2100|26|1|1|-33.4382686|-70.6618072|https://www.portalinmobiliario.com/MLC-2282839422-metro-santa-ana-_JM#position=29&search_layout=grid&type=item&tracking_id=9b63cc9a-bb9f-4622-af73-96d5c6576b07
Metro Parque Ohiggins, Parque O'Higgins, Santiago, RM (Metropolitana)|2100|45|2|2|-33.465072|-70.652978|https://www.portalinmobiliario.com/MLC-2345450826-metro-parque-ohiggins-_JM#position=16&search_layout=grid&type=item&tracking_id=19e9dcd2-f0ff-4664-bb16-516cea3bc611
General Bulnes 259, Depto 113, Barrio Yungay, Santiago, RM (Metropolitana)|3730|45|1|1|-33.4422829|-70.6696519|https://www.portalinmobiliario.com/MLC-1473101581-se-vende-departamento-113-de-1d1b-en-el-edificio-espacio-hue-_JM#position=19&search_layout=grid&type=item&tracking_id=5575e832-fec4-4dea-ac39-565149c89577
Eleuterio Ramírez, Bulnes, Santiago, RM (Metropolitana)|4000|77|3|2|-33.4484332|-70.6472186|https://www.portalinmobiliario.com/MLC-1454859311-departamento-eleuterio-ramirez-id-17390-_JM#position=34&search_layout=grid&type=item&tracking_id=df1cd368-12f0-449b-8dfa-a60cad47a1e6
Portugal 71, Barrio San Borja, Santiago, RM (Metropolitana)|2900|65|3|1|-33.4425374|-70.638665|https://www.portalinmobiliario.com/MLC-2375755444-departamento-en-venta-de-3-dorm-en-santiago-san-borja-_JM#position=16&search_layout=grid&type=item&tracking_id=a8c2002b-11fb-4c60-813d-ee8b70250e71
Avenida Almirante Blanco Encalada 1771, Santiago, Región Metropolitana, Chile, Ejército - Toesca, Santiago, RM (Metropolitana)|2201|35|1|1|-33.4564026|-70.6588846|https://www.portalinmobiliario.com/MLC-2161563434-santiago-vende-depto-cercano-a-metro-toesca--_JM#position=27&search_layout=grid&type=item&tracking_id=242369c3-e4f3-4302-8812-fc2d99a49ef1
San Martin Con Rosas, Centro Histórico de Santiago, Santiago, RM (Metropolitana)|2200|47|2|1|-33.4353792|-70.6588077|https://www.portalinmobiliario.com/MLC-1472126347-departamento-en-venta-de-2-dorm-en-santiago-_JM#position=46&search_layout=grid&type=item&tracking_id=bd9e874a-566e-485f-93cd-a1c587410e63
San Diego 376, Santiago, Chile, San Diego, Santiago, RM (Metropolitana)|2863|34|1|1|-33.4501734|-70.6505164|https://www.portalinmobiliario.com/MLC-1475280013-concepto-best-too-_JM#position=8&search_layout=grid&type=item&tracking_id=c8438234-aa78-4abf-bca7-0237e04d9eb6
Compañía/san Martín, Centro Histórico de Santiago, Santiago, RM (Metropolitana)|1800|40|1|1|-33.438131|-70.6582573|https://www.portalinmobiliario.com/MLC-2357137866-departamento-companiasan-martin-_JM#position=17&search_layout=grid&type=item&tracking_id=9edf42cc-b6d9-4871-ad16-be4d2119ff26
Depto Espacio M Con Terraza, Centro Histórico de Santiago, Santiago, RM (Metropolitana)|1800|34|1|1|-33.438724|-70.6537903|https://www.portalinmobiliario.com/MLC-1461272801-depto-espacio-m-con-terraza-_JM#position=43&search_layout=grid&type=item&tracking_id=be84efed-8c56-4731-8f66-f7d3471098e6
Padre Alonso De Ovalle, Santiago, Chile, Bulnes, Santiago, RM (Metropolitana)|1558|20|1|1|-33.4461676|-70.652637|https://www.portalinmobiliario.com/MLC-2367435438-vendo-2-departamentos-de-un-ambiente-en-santiago-centro-_JM#position=37&search_layout=grid&type=item&tracking_id=df1cd368-12f0-449b-8dfa-a60cad47a1e6
Moneda/tucapel Jimenez, Centro Histórico de Santiago, Santiago, RM (Metropolitana)|2200|35|0|1|-33.4426102|-70.659205|https://www.portalinmobiliario.com/MLC-1476098483-monedatucapel-jimenez-_JM#position=31&search_layout=grid&type=item&tracking_id=8c555f80-a5b5-4edc-a367-4bf34d2a90d0
Santa Victoria, Santa Isabel, Santiago, RM (Metropolitana)|2850|44|2|1|-33.4471789|-70.635319|https://www.portalinmobiliario.com/MLC-1441048149-departamento-santa-victoria-id-92517-_JM#position=23&search_layout=grid&type=item&tracking_id=82a0818c-1951-4b03-b9db-83a3ee71356a
San Pablo / Amunátegui, Centro Histórico de Santiago, Santiago, RM (Metropolitana)|3400|53|2|2|-33.4344302|-70.6579141|https://www.portalinmobiliario.com/MLC-2225261964-venta-departamento-en-santiago-2-dorm-metro-santa-ana-_JM#position=35&search_layout=grid&type=item&tracking_id=8c555f80-a5b5-4edc-a367-4bf34d2a90d0
Mario Kreutzberger, Centro Histórico de Santiago, Santiago, RM (Metropolitana)|2000|26|1|1|-33.4360708|-70.6589821|https://www.portalinmobiliario.com/MLC-1468415395-departamento-mario-kreutzberger-id-89513-_JM#position=6&search_layout=grid&type=item&tracking_id=b1a63316-4ad1-4d30-bb63-4d97a68b3f3c
Tarapaca / Serrano, Bulnes, Santiago, RM (Metropolitana)|2150|44|2|1|-33.4470334|-70.6483796|https://www.portalinmobiliario.com/MLC-1465666951-venta-departamento-santiago-2-dormitorios-bano-bodega-_JM#position=32&search_layout=grid&type=item&tracking_id=08583c8e-4fe9-4051-82a4-aa9ad5a506e4
Metro Santa Isabel, Portugal, Barrio Diez de Julio, Santiago, RM (Metropolitana)|2650|36|1|1|-33.4508107|-70.6363937|https://www.portalinmobiliario.com/MLC-1448029681-departamento-en-venta-de-1-dorm-metro-santa-isabel-_JM#position=20&search_layout=grid&type=item&tracking_id=b94d8405-e9dd-4e59-9bff-ba9a3e095377
Mario Kreutzberger, Centro Histórico de Santiago, Santiago, RM (Metropolitana)|1750|32|1|1|-33.4358975|-70.6589958|https://www.portalinmobiliario.com/MLC-1442314447-departamento-mario-kreutzberger-id-80456-_JM#position=41&search_layout=grid&type=item&tracking_id=6a0541ab-6da3-49a5-9586-47dd564c67b2
Av. Vicuña Mackenna/av. Manuel Antonio Matta, Bogotá - Sierra Bella, Santiago, RM (Metropolitana)|2633|58|3|2|-33.457293|-70.6296049|https://www.portalinmobiliario.com/MLC-2346823596-departamento-av-vicuna-mackennaav-manuel-antonio-matta-_JM#position=23&search_layout=grid&type=item&tracking_id=a11edb7b-3bc9-4633-9be9-e327f6fae84a
Depto De 110 M2 App, 4 Dormitorios 3 Baños, Club Hipico, Parque O'Higgins, Santiago, RM (Metropolitana)|6200|110|4|4|-33.4639956|-70.6647395|https://www.portalinmobiliario.com/MLC-1462974877-depto-de-110-m2-app-4-dormitorios-3-banos-club-hipico-_JM#position=43&search_layout=grid&type=item&tracking_id=92e60104-7d52-460c-8ad7-967871aeb542
Sargento Aldea 1156, Santiago, Chile, Parque O'Higgins, Santiago, RM (Metropolitana)|2633|36|2|1|-33.4687875|-70.6491205|https://www.portalinmobiliario.com/MLC-2273607754-disfrutar-un-parque-cerca-_JM#position=30&search_layout=grid&type=item&tracking_id=3121f85d-535d-45e2-805e-a650afc0f2b2
Marcoleta 250, Santiago, Región Metropolitana, Chile, Barrio San Borja, Santiago, RM (Metropolitana)|3168|80|3|1|-33.4414027|-70.638074|https://www.portalinmobiliario.com/MLC-2388686126-remodelacion-san-borja-3d-1b-80-mts-est-bod-metro-uc-_JM#position=9&search_layout=grid&type=item&tracking_id=a8c2002b-11fb-4c60-813d-ee8b70250e71
Bandera, Centro Histórico de Santiago, Santiago, RM (Metropolitana)|1900|41|1|1|-33.4333088|-70.6532937|https://www.portalinmobiliario.com/MLC-2117699958-departamento-bandera-id-47618-_JM#position=18&search_layout=grid&type=item&tracking_id=feed9058-fd81-49fc-b95e-4ff3f7520f6a
Santa Isabel, Santiago, RM (Metropolitana)|1290|0|1|1|-33.447355|-70.634459|https://www.portalinmobiliario.com/MLC-1478081531-oportunidad-studio-excelente-ubicacion-y-accesos-_JM#position=38&search_layout=grid&type=item&tracking_id=1b2ac868-87b2-4cb4-b9fe-5c97faa2dccc
Venta Depto. 2d 2b, Bandera 898. Santiago, Centro Histórico de Santiago, Santiago, RM (Metropolitana)|2284|42|2|2|-33.4332638|-70.6533075|https://www.portalinmobiliario.com/MLC-2355030216-venta-depto-2d-2b-bandera-898-santiago-_JM#position=37&search_layout=grid&type=item&tracking_id=a10e7d70-60f1-4b35-ba57-4b58ccfe8b29
Avenida San Pablo 1391, Santiago, Chile, Centro Histórico de Santiago, Santiago, RM (Metropolitana)|3000|57|2|1|-33.4341226|-70.6572758|https://www.portalinmobiliario.com/MLC-1445983823-venta-depto-2d1bbod-en-san-pabloamunategui-santiago-_JM#position=3&search_layout=grid&type=item&tracking_id=060baa90-8b2b-435c-8bd4-78d129392cd3
Carmen/santa Isabel, Santa Isabel, Santiago, RM (Metropolitana)|3300|29|1|1|-33.450055|-70.6413223|https://www.portalinmobiliario.com/MLC-2375639428-departamento-en-venta-de-1-dorm-en-santiago-_JM#position=30&search_layout=grid&type=item&tracking_id=22c846a4-8db2-4cdf-9360-cb3db1e09ce6
Lord Cochrane 1030, Parque Almagro, Santiago, RM (Metropolitana)|2042|42|1|1|-33.4592365|-70.6532338|https://www.portalinmobiliario.com/MLC-2350223460-departamento-lord-cochrane-santiago-centro-_JM#position=1&search_layout=grid&type=item&tracking_id=ccb1f7be-333a-41ae-a4ed-4846f99c10f7
Avenida Almirante Blanco Encalada, 2527, Barrio República, Santiago, RM (Metropolitana)|2790|36|1|1|-33.45742|-70.669263|https://www.portalinmobiliario.com/MLC-1473407767-moderno-departamento-en-venta-blanco-encalada-_JM#position=37&search_layout=grid&type=item&tracking_id=eab89569-2b76-40bf-b921-1153a0878afc
Vendo Gran Departamento 3 Dorm 2 Baños, San Diego, Santiago, RM (Metropolitana)|4138|85|3|2|-33.4485677|-70.6452174|https://www.portalinmobiliario.com/MLC-1463479281-vendo-gran-departamento-3-dorm-2-banos-_JM#position=3&search_layout=grid&type=item&tracking_id=19c2411a-352c-4da1-8518-8ed69b0a4822
Av. Libertador Bernardo O'higgins N. 300 - 600, Santiago, Chile, Barrio San Borja, Santiago, RM (Metropolitana)|6300|148|3|2|-33.4421021|-70.6429398|https://www.portalinmobiliario.com/MLC-2385919250-remodelado-en-edificio-art-deco-ano-1946-_JM#position=13&search_layout=grid&type=item&tracking_id=a8c2002b-11fb-4c60-813d-ee8b70250e71
Alonso De Ovalle 880, Bulnes, Santiago, RM (Metropolitana)|2400|43|1|1|-33.4457995|-70.6484412|https://www.portalinmobiliario.com/MLC-1471696297-departamento-1-dormitorio-1-bano-_JM#position=11&search_layout=grid&type=item&tracking_id=d58f037f-94af-43e1-a616-1ad8477c5a2a
Barrio República, Santiago, RM (Metropolitana)|2350|42|1|1|-33.448889|-70.669265|https://www.portalinmobiliario.com/MLC-2356970034-departamento-venta-santiago-centro-_JM#position=36&search_layout=grid&type=item&tracking_id=dd4f2cbc-ac44-49e7-a344-ceee4576a4c8
Santa Elena 1200 - 1500, Santiago, Chile, Bogotá - Sierra Bella, Santiago, RM (Metropolitana)|2990|48|2|1|-33.4586982|-70.6300909|https://www.portalinmobiliario.com/MLC-2310987802-bello-y-acogedor-departamento-en-piso-alto-_JM#position=34&search_layout=grid&type=item&tracking_id=a11edb7b-3bc9-4633-9be9-e327f6fae84a
Lira 399, Santa Isabel, Santiago, RM (Metropolitana)|1835|32|1|1|-33.4480702|-70.6394834|https://www.portalinmobiliario.com/MLC-2060237806-se-vende-depto-1d1b1bod-a-pasos-metro-santa-isabel-l5-_JM#position=2&search_layout=grid&type=item&tracking_id=5e123917-8ae4-4fbc-af57-c075ac0a25c3
Diagonal Vicuña Mackenna / Sta Elena, Bogotá - Sierra Bella, Santiago, RM (Metropolitana)|2700|36|1|1|-33.4709223|-70.6264897|https://www.portalinmobiliario.com/MLC-1448006629-departamento-en-venta-de-1-dormitorio-en-santiago-_JM#position=12&search_layout=grid&type=item&tracking_id=9af62994-e79b-4457-975c-89d4169b2d42
Mapocho 1450, Centro Histórico de Santiago, Santiago, RM (Metropolitana)|1890|36|1|1|-33.4321822|-70.6583662|https://www.portalinmobiliario.com/MLC-2371410954-vende-dpto-1d1b-metro-cal-y-canto-av-mapocho-santiago-_JM#position=4&search_layout=grid&type=item&tracking_id=06e9d37c-e4c7-42cc-8f32-41c52f1a460f
Av. Manuel Rodríguez 881, Centro Histórico de Santiago, Santiago, RM (Metropolitana)|2100|29|1|1|-33.433426|-70.660057|https://www.portalinmobiliario.com/MLC-1434920725-edificio-av-manuel-rodriguez-vista-norte-piso-18-_JM#position=35&search_layout=grid&type=item&tracking_id=b1d873fb-aff6-4adb-ab65-ba5a75f26ed0
Morandé 617, 8340251 Santiago, Región Metropolitana, Chile, Centro Histórico de Santiago, Santiago, RM (Metropolitana)|2822|60|2|2|-33.4363263|-70.654206|https://www.portalinmobiliario.com/MLC-1464539683-santiago-vende-dpto-estilo-mariposa-la-moneda-inversion-_JM#position=19&search_layout=grid&type=item&tracking_id=bbc2987f-5e46-4725-94b0-5c392ab02fd9
Compañía/morandé Impecable!, Centro Histórico de Santiago, Santiago, RM (Metropolitana)|3600|62|2|2|-33.4376342|-70.6540272|https://www.portalinmobiliario.com/MLC-2343490326-companiamorande-impecable-_JM#position=3&search_layout=grid&type=item&tracking_id=84b2d68f-4be8-446f-bd0e-3fb7685c8a61
General Gana 1063, Santiago, Chile, Franklin - Biobío, Santiago, RM (Metropolitana)|2100|29|1|1|-33.4712446|-70.6481275|https://www.portalinmobiliario.com/MLC-1477334949-departamento-para-inversionistas-_JM#position=23&search_layout=grid&type=item&tracking_id=99f60eaa-8e14-45ee-9e01-d7188c481cb1
Centro Histórico de Santiago, Santiago, RM (Metropolitana)|2300|46|2|1|-33.435842|-70.659282|https://www.portalinmobiliario.com/MLC-2322776604-ubicacion-privilegiada-metro-santa-ana-_JM#position=39&search_layout=grid&type=item&tracking_id=8347844a-839a-46b3-8614-b81ba32195e1
Carmen 90, Santa Isabel, Santiago, RM (Metropolitana)|2285|24|1|1|-33.4441766|-70.6428014|https://www.portalinmobiliario.com/MLC-1054943853-pop-art-_JM#position=20&search_layout=grid&type=item&tracking_id=c8438234-aa78-4abf-bca7-0237e04d9eb6
Amplio Departamento Excelente Ubicación, Barrio Yungay, Santiago, RM (Metropolitana)|3400|70|2|2|-33.4465876|-70.6690086|https://www.portalinmobiliario.com/MLC-1478007361-amplio-departamento-excelente-ubicacion-21123-_JM#position=33&search_layout=grid&type=item&tracking_id=f308d7ef-fe25-4a32-9fd8-612f2e0d33a1
Victoria Subercaseaux, Barrio Lastarria, Santiago, RM (Metropolitana)|7150|140|3|2|-33.4386766|-70.6424136|https://www.portalinmobiliario.com/MLC-2117712806-departamento-victoria-subercaseaux-id-47340-_JM#position=7&search_layout=grid&type=item&tracking_id=d570d69c-33a2-4800-936c-b1b7af421e18
San Ignacio 999, Parque Almagro, Santiago, RM (Metropolitana)|3090|70|3|2|-33.4595721|-70.6556766|https://www.portalinmobiliario.com/MLC-2383528106-oportunidad-3-dor-2-banestac-y-bodega-lado-del-metro-_JM#position=18&search_layout=grid&type=item&tracking_id=f84434bd-34c7-4ec3-890a-7a818ed850a6
Nataniel Cox 135, Bulnes, Santiago, RM (Metropolitana)|2350|30|1|1|-33.4472476|-70.6540003|https://www.portalinmobiliario.com/MLC-2078582882-departamento-nataniel-cox-135-id-70624-_JM#position=26&search_layout=grid&type=item&tracking_id=b113955d-6919-4870-8948-612f2d006649
Cerro Santa Lucia, Santa Isabel, Santiago, RM (Metropolitana)|6000|90|2|2|-33.4440247|-70.6435677|https://www.portalinmobiliario.com/MLC-2269181956-departamento-en-venta-en-santiago-_JM#position=6&search_layout=grid&type=item&tracking_id=bace3b35-d932-42d7-89a5-7969285f1631
Chiloé 1200 - 1500, Franklin, Santiago, Chile, Franklin - Biobío, Santiago, RM (Metropolitana)|2150|42|2|1|-33.4706964|-70.6453253|https://www.portalinmobiliario.com/MLC-1468729913-departamento-venta-santiago-centro-_JM#position=17&search_layout=grid&type=item&tracking_id=345d233d-17bc-4f9e-98cc-415c0712bb97
Tarapaca, Cerca Metro U De Chile, 0, Bulnes, Santiago, RM (Metropolitana)|2490|46|2|1|-33.447134|-70.649579|https://www.portalinmobiliario.com/MLC-1471261431-oportunidad-cerca-metro-menor-a-valor-comercial-_JM#position=45&search_layout=grid&type=item&tracking_id=98d86d59-1cf9-435d-bf9f-4b9f369b3137
Argomedo Con Portugal, Santa Isabel, Santiago, RM (Metropolitana)|3500|63|2|2|-33.4497173|-70.6355637|https://www.portalinmobiliario.com/MLC-1478526107-departamento-en-venta-en-santiago-_JM#position=35&search_layout=grid&type=item&tracking_id=6d4e128f-5275-4e06-8d7e-0c438f1d2669
Av. Libertador Bernardo O'higgins 292, Santiago, Chile, Barrio San Borja, Santiago, RM (Metropolitana)|33000|540|7|6|-33.4401826|-70.6400977|https://www.portalinmobiliario.com/MLC-2327088772-venta-iconico-e-historico-duplex-al-lado-de-metro-u-catolica-_JM#position=29&search_layout=grid&type=item&tracking_id=a8c2002b-11fb-4c60-813d-ee8b70250e71
Blanco Encalada Con Bascuñan Guerrero, Barrio República, Santiago, RM (Metropolitana)|4031|50|2|1|-33.4576431|-70.6683282|https://www.portalinmobiliario.com/MLC-1458435553-dpto-2d-en-santiago-_JM#position=17&search_layout=grid&type=item&tracking_id=2c7cc6b8-ec00-4cc1-b647-fadd07f65965
Raulí Esquina Argomedo, 1 - 300, Santa Isabel, Santiago, RM (Metropolitana)|2200|51|1|1|-33.449293|-70.636146|https://www.portalinmobiliario.com/MLC-2371375038-1er-piso-con-patio-privado-metro-santa-isabel-_JM#position=13&search_layout=grid&type=item&tracking_id=b113955d-6919-4870-8948-612f2d006649
Santa Elvira 0 - 200, Bogotá - Sierra Bella, Santiago, RM (Metropolitana)|2685|30|1|1|-33.4579265|-70.6303954|https://www.portalinmobiliario.com/MLC-1441943763-cesion-de-derecho-1d-1b-_JM#position=3&search_layout=grid&type=item&tracking_id=0770310a-699f-4ed7-93b8-99c88ca2db6e
Dieciocho, Santiago, RM (Metropolitana)|2190|34|1|1|-33.4487024|-70.6562412|https://www.portalinmobiliario.com/MLC-1465891567-impecable-estudiometro-moneda-_JM#position=44&search_layout=grid&type=item&tracking_id=b113955d-6919-4870-8948-612f2d006649
Avenida Manuel Antonio Matta 600 - 900, Santiago, Chile, San Diego, Santiago, RM (Metropolitana)|1790|31|1|1|-33.458206|-70.6441928|https://www.portalinmobiliario.com/MLC-2268650920-venta-departamento-santiago-_JM#position=17&search_layout=grid&type=item&tracking_id=fd97811e-d002-470c-ac7f-054d1c8a50ab
San Diego, Parque O'Higgins, Santiago, RM (Metropolitana)|2100|45|2|1|-33.4654034|-70.6490382|https://www.portalinmobiliario.com/MLC-2098079436-departamento-san-diego-id-80044-_JM#position=36&search_layout=grid&type=item&tracking_id=221b4f95-b050-4621-8c6f-e63e754a5487
Huérfanos 714, Santiago, Chile, Barrio Brasil, Santiago, RM (Metropolitana)|1880|38|1|1|-33.4407045|-70.6616426|https://www.portalinmobiliario.com/MLC-2061388412-venta-departamento-en-santiago-centro-metro-sta-lucia-_JM#position=40&search_layout=grid&type=item&tracking_id=eb609bb0-7d42-4cfe-86bb-e04898ff9373
General Mackenna 1200 - 1500, Santiago, Chile, Centro Histórico de Santiago, Santiago, RM (Metropolitana)|3600|73|2|2|-33.4335253|-70.6553944|https://www.portalinmobiliario.com/MLC-2154811932-departamento-en-excelente-ubicacion-_JM#position=14&search_layout=grid&type=item&tracking_id=6a0541ab-6da3-49a5-9586-47dd564c67b2
Lord Cochrane/nataniel Cox, Parque Almagro, Santiago, RM (Metropolitana)|2800|52|2|1|-33.4511433|-70.6540771|https://www.portalinmobiliario.com/MLC-2346914540-departamento-lord-cochranenataniel-cox-_JM#position=43&search_layout=grid&type=item&tracking_id=0c81ca27-5b6d-4e81-a06d-cbca10b4a524
Diagonal Paraguay/ Marcoleta, Barrio San Borja, Santiago, RM (Metropolitana)|2850|34|1|1|-33.4429142|-70.6420822|https://www.portalinmobiliario.com/MLC-1478344537-departamento-en-venta-en-santiago-_JM#position=2&search_layout=grid&type=item&tracking_id=a8c2002b-11fb-4c60-813d-ee8b70250e71
Vicuña Mackenna, Santa Isabel, Santiago, RM (Metropolitana)|2000|31|1|1|-33.446444|-70.636347|https://www.portalinmobiliario.com/MLC-1452047027-departamento-en-venta-de-1-dorm-en-santiago-_JM#position=10&search_layout=grid&type=item&tracking_id=93d77489-ba8c-4a5c-b224-0cbab2752f6c
Lord Cochrane / Parque Almagro, Parque Almagro, Santiago, RM (Metropolitana)|1700|27|1|1|-33.4538515|-70.6544203|https://www.portalinmobiliario.com/MLC-1469487987-lord-cochrane-parque-almagro-_JM#position=15&search_layout=grid&type=item&tracking_id=305f70e3-0de5-4b1b-b907-be6a325020f6
Remodelado Estilo Industrial, Centro Histórico de Santiago, Santiago, RM (Metropolitana)|5402|119|2|3|-33.4382116|-70.6470626|https://www.portalinmobiliario.com/MLC-2383533304-remodelado-estilo-industrial-18529-_JM#position=30&search_layout=grid&type=item&tracking_id=639627b8-21bf-4ce6-8397-438f5bbf7f80
San Isidro 234, Santiago, Chile, Santa Isabel, Santiago, RM (Metropolitana)|1760|30|1|1|-33.4464898|-70.6435322|https://www.portalinmobiliario.com/MLC-2085194104-oportunidadventa-directa-sin-comision-excelente-ubicacion-_JM#position=18&search_layout=grid&type=item&tracking_id=d50bcaf6-3b54-4598-affe-0fc55aa81089
Parque O'Higgins, Santiago, RM (Metropolitana)|2950|52|2|2|-33.4685412|-70.6647257|https://www.portalinmobiliario.com/MLC-2371815868-parque-ohiggins-metro-rondizzoni-_JM#position=46&search_layout=grid&type=item&tracking_id=3121f85d-535d-45e2-805e-a650afc0f2b2
San Francisco, San Diego, Santiago, RM (Metropolitana)|3500|62|2|2|-33.4505481|-70.6471812|https://www.portalinmobiliario.com/MLC-2117635534-departamento-san-francisco-id-40216-_JM#position=28&search_layout=grid&type=item&tracking_id=a9bfc503-6d66-41ac-9061-e01bb7879329
Santo Domingo / Morandé, Centro Histórico de Santiago, Santiago, RM (Metropolitana)|4260|60|2|2|-33.4363034|-70.6536088|https://www.portalinmobiliario.com/MLC-2117699756-departamento-santo-domingo-morande-id-94580-_JM#position=30&search_layout=grid&type=item&tracking_id=db30c598-8243-46f2-b282-0e01a6df22bc
San Isidro 250, Santa Isabel, Santiago, RM (Metropolitana)|2100|32|1|1|-33.446806|-70.6435637|https://www.portalinmobiliario.com/MLC-2317707172-gran-oportunidad-excelente-departamento-_JM#position=45&search_layout=grid&type=item&tracking_id=a41fa647-0bae-4ea6-9ec5-79625c9e43ea
Av. España 397, Santiago, Chile, Barrio República, Santiago, RM (Metropolitana)|4350|72|3|2|-33.453642|-70.6694932|https://www.portalinmobiliario.com/MLC-1478080237-amplio-3d2b-estacionamiento-bodega-av-espana-metro-republic-_JM#position=41&search_layout=grid&type=item&tracking_id=00c1dc4f-c55a-480c-aac4-7759a2d54f8a
Vicuña Mackenna 1231, Bogotá - Sierra Bella, Santiago, RM (Metropolitana)|2379|32|1|1|-33.4573228|-70.62965|https://www.portalinmobiliario.com/MLC-1476825665-venta-departamento-cerca-metro-irarrazaval-_JM#position=14&search_layout=grid&type=item&tracking_id=5228b278-2f1a-4ecf-86ff-04dc450ac31b
Huérfanos & Avenida Brasil, Santiago, Chile, Barrio Brasil, Santiago, RM (Metropolitana)|4054|55|2|2|-33.4410495|-70.6649365|https://www.portalinmobiliario.com/MLC-1454692187-departamento-con-excelente-ubicacion-_JM#position=16&search_layout=grid&type=item&tracking_id=eb609bb0-7d42-4cfe-86bb-e04898ff9373
Chiloé 1951, Franklin - Biobío, Santiago, RM (Metropolitana)|3121|48|2|2|-33.471386|-70.645248|https://www.portalinmobiliario.com/MLC-1464822735-edificio-chiloe-vista-poniente-piso-4-_JM#position=44&search_layout=grid&type=item&tracking_id=eea918e5-ee32-469b-8390-edf757239b31
Serrano / Padre Alonso De Ovalle, Bulnes, Santiago, RM (Metropolitana)|3790|60|2|2|-33.4461618|-70.6488421|https://www.portalinmobiliario.com/MLC-2240562368-departamento-en-venta-2d-2b-1-bod-en-santiago-_JM#position=19&search_layout=grid&type=item&tracking_id=98d86d59-1cf9-435d-bf9f-4b9f369b3137
Metro Santa Ana, Centro Histórico de Santiago, Santiago, RM (Metropolitana)|2100|31|1|1|-33.4370901|-70.6579201|https://www.portalinmobiliario.com/MLC-2131597358-departamento-en-venta-de-1-dorm-en-santiago-_JM#position=17&search_layout=grid&type=item&tracking_id=5ef97249-5004-442d-af04-66956ff68288
Vicula Mackenna/ General Jofre, Santa Isabel, Santiago, RM (Metropolitana)|2250|32|1|1|-33.4441954|-70.6340643|https://www.portalinmobiliario.com/MLC-1438467989-departamento-en-venta-1d1b-en-santiago-_JM#position=13&search_layout=grid&type=item&tracking_id=fb6bdd86-4650-4840-a318-90f65a059938
Carmen 1 - 300, Santiago, Chile, Santa Isabel, Santiago, RM (Metropolitana)|4950|83|2|2|-33.4440247|-70.6435677|https://www.portalinmobiliario.com/MLC-1471849949-metro-santa-lucia-amplio-depto-disponibilidad-inmediata-_JM#position=6&search_layout=grid&type=item&tracking_id=162b65d3-5ff2-4403-98f6-2babfe1e82fe
Toesca, Santiago, Chile, Barrio República, Santiago, RM (Metropolitana)|1666|35|1|1|-33.454498|-70.6670741|https://www.portalinmobiliario.com/MLC-2242517946-atencion-por-apuro-1-dormitorio-en-suite-cercano-al-met-_JM#position=3&search_layout=grid&type=item&tracking_id=13999c8a-d1f2-4118-9b20-8e946852e19a
Lord Cochrane 181, Santiago, Chile, Bulnes, Santiago, RM (Metropolitana)|4200|67|3|2|-33.448527|-70.6549634|https://www.portalinmobiliario.com/MLC-2131637952-departamento-amoblado-con-estacionamiento-y-bodega-cod-405-_JM#position=41&search_layout=grid&type=item&tracking_id=19fb1f01-4932-43df-907d-da92b14c9166
Santa Victoria 387, Santa Isabel, Santiago, RM (Metropolitana)|1990|36|1|1|-33.4477637|-70.6390042|https://www.portalinmobiliario.com/MLC-2374840506-venta-1d1b-amoblado-metro-santa-isabel-_JM#position=46&search_layout=grid&type=item&tracking_id=5ef4a849-834b-426c-ba16-8715400ccaab
Carmen, Santa Isabel, Santiago, RM (Metropolitana)|2096|37|1|1|-33.4506173|-70.6414493|https://www.portalinmobiliario.com/MLC-2137481558-departamento-carmen-id-116906-_JM#position=16&search_layout=grid&type=item&tracking_id=50919d6c-0457-45fd-b52c-646022aa7f6f
San Isidro  435, Santa Isabel, Santiago, RM (Metropolitana)|2176|63|2|1|-33.4495392|-70.6433792|https://www.portalinmobiliario.com/MLC-1477751707-a-pocas-cuadras-metro-santa-lucia-2d-1b-amplios-espacios-_JM#position=30&search_layout=grid&type=item&tracking_id=87d5049e-0fb5-461b-84d9-52af890f5436
Avenida Matta Cercano A Metro Matta, Bogotá - Sierra Bella, Santiago, RM (Metropolitana)|1950|35|1|1|-33.4579964|-70.6411855|https://www.portalinmobiliario.com/MLC-1445087331-departamento-en-venta-de-1-dorm-en-santiago-_JM#position=35&search_layout=grid&type=item&tracking_id=3d7f6e32-fa6b-4bfe-bb60-e2ccc3d34c09
Marin Estacionamiento Y Bodega, Santa Isabel, Santiago, RM (Metropolitana)|3300|65|2|2|-33.4475574|-70.642112|https://www.portalinmobiliario.com/MLC-1434135405-marin-estacionamiento-y-bodega-_JM#position=43&search_layout=grid&type=item&tracking_id=a1fe11d2-c0d7-4352-af1c-520c9899eed7
Lord Cochrane / Eleuterio Ramirez, Parque Almagro, Santiago, RM (Metropolitana)|1827|30|1|1|-33.4500958|-70.6544408|https://www.portalinmobiliario.com/MLC-1475646289-departamento-en-venta-en-santiago-1-dorm-_JM#position=34&search_layout=grid&type=item&tracking_id=305f70e3-0de5-4b1b-b907-be6a325020f6
Blanco Encalada 2007, Barrio República, Santiago, RM (Metropolitana)|2100|40|1|1|-33.4572487|-70.6676969|https://www.portalinmobiliario.com/MLC-2385851576-departamento-en-venta-1d-1b-santiago-centro-_JM#position=29&search_layout=grid&type=item&tracking_id=dfa401a5-9e9e-4e75-8e65-fc63d4cbde22
Metro U De Chile, Bulnes, Santiago, RM (Metropolitana)|2687|50|2|2|-33.4471518|-70.6487759|https://www.portalinmobiliario.com/MLC-2313165730-metro-u-de-chile-_JM#position=32&search_layout=grid&type=item&tracking_id=69e6846c-1d9e-4a40-a0cd-386846634b40
San Isidro 151, Santiago, Chile, Santa Isabel, Santiago, RM (Metropolitana)|2200|34|1|1|-33.4454196|-70.6445236|https://www.portalinmobiliario.com/MLC-2274462726-departamento-para-inversion-cerca-de-metro-santa-lucia-_JM#position=8&search_layout=grid&type=item&tracking_id=3978bf09-3ea8-4347-90e7-66a17aa31072
Av. Libertador Bernardo O´higgins 2488, Barrio República, Santiago, RM (Metropolitana)|2824|25|1|1|-33.449537|-70.6714495|https://www.portalinmobiliario.com/MLC-1439402165-276santiago-_JM#position=10&search_layout=grid&type=item&tracking_id=c8438234-aa78-4abf-bca7-0237e04d9eb6
Cóndor 1358, Santiago, Chile, Parque Almagro, Santiago, RM (Metropolitana)|2200|25|1|1|-33.451093|-70.6538309|https://www.portalinmobiliario.com/MLC-1456920787-depto-1-dormitorio-centrico-a-pasos-estaciones-del-metro-_JM#position=45&search_layout=grid&type=item&tracking_id=ccb1f7be-333a-41ae-a4ed-4846f99c10f7
Huérfanos / Amunátegui, Centro Histórico de Santiago, Santiago, RM (Metropolitana)|3037|53|2|2|-33.4403299|-70.6567817|https://www.portalinmobiliario.com/MLC-2117661120-departamento-huerfanos-amunategui-id-94593-_JM#position=43&search_layout=grid&type=item&tracking_id=0c8d3af2-2e85-4fae-a943-78b219316675
Rosas, Centro Histórico de Santiago, Santiago, RM (Metropolitana)|3500|60|2|2|-33.4357474|-70.6553373|https://www.portalinmobiliario.com/MLC-2383555832-excelente-y-seguro-departamento-en-rosas-nd-propiedades-_JM#position=4&search_layout=grid&type=item&tracking_id=63c47a80-3763-4db2-a1b3-817ccd1539f1
Metro U. De Chile / Paseo Bulnes, Bulnes, Santiago, RM (Metropolitana)|4900|130|3|2|-33.4474312|-70.6514938|https://www.portalinmobiliario.com/MLC-1477592251-departamento-en-venta-en-santiago-gran-terraza-_JM#position=7&search_layout=grid&type=item&tracking_id=a68ff074-f63f-473d-989f-fc0b4c4b2072
San Martín / Rosas, Centro Histórico de Santiago, Santiago, RM (Metropolitana)|2190|48|2|1|-33.4353009|-70.6592788|https://www.portalinmobiliario.com/MLC-2383546276-gran-oportunidad-inversion-depto-2d1b-metro-santa-ana-_JM#position=1&search_layout=grid&type=item&tracking_id=70171495-6ecf-41cc-9b60-37e09ca4a4d2
Moneda/ San Martín, Centro Histórico de Santiago, Santiago, RM (Metropolitana)|4750|61|3|2|-33.4428302|-70.6587403|https://www.portalinmobiliario.com/MLC-1463504085-venta-departmento-3-dorm-en-santiago-metro-moneda-_JM#position=14&search_layout=grid&type=item&tracking_id=8c555f80-a5b5-4edc-a367-4bf34d2a90d0
Diagonal Vicuña Mackenna (piso 24), Bogotá - Sierra Bella, Santiago, RM (Metropolitana)|4200|65|2|2|-33.4698855|-70.6259677|https://www.portalinmobiliario.com/MLC-1472837887-diagonal-vicuna-mackenna-piso-24-_JM#position=17&search_layout=grid&type=item&tracking_id=88f210af-410b-440c-bd0f-b2e479178e41
General Jofre / Fray Camilo Piso 3, Santa Isabel, Santiago, RM (Metropolitana)|3100|50|2|2|-33.4444459|-70.6347331|https://www.portalinmobiliario.com/MLC-1436860685-departamento-general-jofre-fray-camilo-piso-3-id-94556-_JM#position=23&search_layout=grid&type=item&tracking_id=f5a5c48c-379f-4bf6-92ea-caca240d87bd
Venta Home Studio - Metro Rondizzoni - Metro Franklin, Franklin - Biobío, Santiago, RM (Metropolitana)|1180|17|1|1|-33.4707988|-70.6478797|https://www.portalinmobiliario.com/MLC-2378581430-venta-home-studio-metro-rondizzoni-metro-franklin-_JM#position=19&search_layout=grid&type=item&tracking_id=4de0ff12-7d85-4a09-a5bc-23b187016a29
San Pablo / Brasil, Parque Los Reyes, Santiago, RM (Metropolitana)|2745|61|3|2|-33.4337782|-70.6646651|https://www.portalinmobiliario.com/MLC-2199229442-san-pablo-av-brasil-_JM#position=32&search_layout=grid&type=item&tracking_id=184bf467-db98-4bf4-85e2-918796730ae5
Avenida Santa Isabel 502, Santiago, Chile, Santa Isabel, Santiago, RM (Metropolitana)|2870|55|2|2|-33.4502421|-70.6416909|https://www.portalinmobiliario.com/MLC-2333829266-2d2b-amplio-y-luminoso-estacionamiento-y-bodega-incluida-_JM#position=21&search_layout=grid&type=item&tracking_id=162b65d3-5ff2-4403-98f6-2babfe1e82fe
Chiloé 1690, Santiago, Chile, Parque O'Higgins, Santiago, RM (Metropolitana)|1478|32|1|1|-33.4681622|-70.645277|https://www.portalinmobiliario.com/MLC-2321015076-departamento-en-venta-_JM#position=35&search_layout=grid&type=item&tracking_id=156d961a-2fc1-4934-b172-d3b22e115faa
Marcoleta /sara Del Campo, Santa Isabel, Santiago, RM (Metropolitana)|6000|90|2|2|-33.4440247|-70.6435677|https://www.portalinmobiliario.com/MLC-2117635280-departamento-marcoleta-sara-del-campo-id-94604-_JM#position=11&search_layout=grid&type=item&tracking_id=eff58ecc-675e-49be-a2a3-432cd58f64a4
Arturo Prat 407, San Diego, Santiago, RM (Metropolitana)|2900|50|2|1|-33.4503259|-70.6491902|https://www.portalinmobiliario.com/MLC-2341470432-refv13950-para-inversion-o-vivienda-propia-2d1b-c-_JM#position=43&search_layout=grid&type=item&tracking_id=d2548354-e2f9-417c-b525-a595a550e10c
Departamento En Venta En Santiago Centro, Centro Histórico de Santiago, Santiago, RM (Metropolitana)|1950|29|1|1|-33.4358975|-70.6589958|https://www.portalinmobiliario.com/MLC-1471436789-departamento-en-venta-en-santiago-centro-_JM#position=6&search_layout=grid&type=item&tracking_id=7900a9c9-244b-4ff1-ba24-2c2435fc25cf
Santo Domingo 1364, Santiago, Chile, Centro Histórico de Santiago, Santiago, RM (Metropolitana)|3234|60|2|2|-33.4369767|-70.6564623|https://www.portalinmobiliario.com/MLC-1453452177-comodo-departamento-cercano-a-metro-santa-ana-_JM#position=23&search_layout=grid&type=item&tracking_id=07845d48-f48e-4d2d-8177-8db0ae602cd7
San Martín, Centro Histórico de Santiago, Santiago, RM (Metropolitana)|1574|35|1|1|-33.4429189|-70.6577684|https://www.portalinmobiliario.com/MLC-1468608083-venta-depto-1-dorm-en-calle-san-martin-santiago-_JM#position=38&search_layout=grid&type=item&tracking_id=9edf42cc-b6d9-4871-ad16-be4d2119ff26
Cercano A Santa Isabel Con Santa Rosa, Barrio Diez de Julio, Santiago, RM (Metropolitana)|2553|67|3|2|-33.4531782|-70.6408218|https://www.portalinmobiliario.com/MLC-2374848848-departamento-en-venta-de-3-dorm-en-santiago-_JM#position=26&search_layout=grid&type=item&tracking_id=0c74d70a-9da3-4212-af63-f5a99a627245
José Miguel De La Barra 521, Santiago, Región Metropolitana, Chile, Barrio Lastarria, Santiago, RM (Metropolitana)|6150|120|2|2|-33.43636|-70.6430742|https://www.portalinmobiliario.com/MLC-1458700793-hermoso-depto-bellas-artes-_JM#position=27&search_layout=grid&type=item&tracking_id=6b3fb110-652b-47a5-8704-cc0807131d52
Depto Santiago Centro - Calle San Isidro - 1d 1b, Santa Isabel, Santiago, RM (Metropolitana)|1840|30|1|1|-33.4464266|-70.6435726|https://www.portalinmobiliario.com/MLC-1477445959-gran-oportunidad-de-inversion-depto-en-venta-stgo-1d-1b-_JM#position=25&search_layout=grid&type=item&tracking_id=61a09ec8-fbf8-4c85-aa04-314e63902e50
Santiago, Barrio República, Santiago, RM (Metropolitana)|3575|58|2|2|-33.4488897|-70.6692655|https://www.portalinmobiliario.com/MLC-2339408644-excelentes-deptos-nuevos-22mariposa-santiago-_JM#position=26&search_layout=grid&type=item&tracking_id=00c1dc4f-c55a-480c-aac4-7759a2d54f8a
Moneda 1617, Santiago, Chile, Centro Histórico de Santiago, Santiago, RM (Metropolitana)|3559|54|2|2|-33.4426553|-70.6592204|https://www.portalinmobiliario.com/MLC-2099786766-excelente-oportunidad-de-un-gran-lugar-para-vivir-_JM#position=9&search_layout=grid&type=item&tracking_id=6a0541ab-6da3-49a5-9586-47dd564c67b2
Avenida Santa Isabel 502, Santiago, Chile, Santa Isabel, Santiago, RM (Metropolitana)|3190|66|3|2|-33.4503421|-70.6419877|https://www.portalinmobiliario.com/MLC-1478174347-dpto-nuevo-3-dormitorios-_JM#position=24&search_layout=grid&type=item&tracking_id=d60e6c37-694c-4d05-9f1b-51f6bc2102dc
Vergara, Santiago, Chile, Ejército - Toesca, Santiago, RM (Metropolitana)|2300|37|1|1|-33.4521734|-70.6616637|https://www.portalinmobiliario.com/MLC-1471801289-vergara-gorbea-barrio-universitario-cercano-a-metro-_JM#position=7&search_layout=grid&type=item&tracking_id=b05586f8-2e03-41b0-89b8-331f8affd440
Avenida Presidente Balmaceda 2720, Parque Los Reyes, Santiago, RM (Metropolitana)|2290|36|1|1|-33.427682|-70.6744235|https://www.portalinmobiliario.com/MLC-1468247385-depto-venta-exc-conectividad-1d-1b-1b-1e-p-reyes-stgo-_JM#position=1&search_layout=grid&type=item&tracking_id=101a90e7-e1a4-4b22-a237-fd30b843ae5b
San Francisco 294, Santiago, Chile, Bulnes, Santiago, RM (Metropolitana)|2270|47|3|1|-33.4482758|-70.6468706|https://www.portalinmobiliario.com/MLC-2227060996-excelente-depto-en-centro-de-santiago-_JM#position=7&search_layout=grid&type=item&tracking_id=19fb1f01-4932-43df-907d-da92b14c9166
San Isidro 345, Santa Isabel, Santiago, RM (Metropolitana)|5499|95|1|3|-33.4484366|-70.6437536|https://www.portalinmobiliario.com/MLC-1470681013-departamento-en-venta-de-1-dorm-en-santiago-_JM#position=42&search_layout=grid&type=item&tracking_id=a641bcb9-690b-417a-9aef-71503f226b7a
Santiago 1368, Santiago, Región Metropolitana, Chile, Parque O'Higgins, Santiago, RM (Metropolitana)|3400|62|3|2|-33.4625976|-70.6522459|https://www.portalinmobiliario.com/MLC-2238927764-venta-dpto-calle-santiago-comuna-de-santiago-_JM#position=16&search_layout=grid&type=item&tracking_id=156d961a-2fc1-4934-b172-d3b22e115faa
Avenida Ricardo Cumming 1350, Santiago, Chile, Parque Los Reyes, Santiago, RM (Metropolitana)|3386|78|3|2|-33.4294869|-70.6696063|https://www.portalinmobiliario.com/MLC-1463461329-depto-amplio-3-dormitorios-2-banos-livingcomedor-cocina-_JM#position=33&search_layout=grid&type=item&tracking_id=101a90e7-e1a4-4b22-a237-fd30b843ae5b
Departamento En Venta Santiago Centro, Santiago, Centro Histórico de Santiago, Santiago, RM (Metropolitana)|1746|26|1|1|-33.4337|-70.6587|https://www.portalinmobiliario.com/MLC-1435484311-departamento-en-venta-en-santiago-_JM#position=18&search_layout=grid&type=item&tracking_id=be84efed-8c56-4731-8f66-f7d3471098e6
Avenida Vicuña Mackenna 1207, Ñuñoa, Santiago, Chile, Bogotá - Sierra Bella, Santiago, RM (Metropolitana)|1800|0|1|1|-33.4566912|-70.6301839|https://www.portalinmobiliario.com/MLC-2314900040-departamento-inversionistas-actualmente-arrendados-_JM#position=15&search_layout=grid&type=item&tracking_id=1feaef49-5309-41cc-939b-0b2cd2306cac
Carmen, Bogotá - Sierra Bella, Santiago, RM (Metropolitana)|1900|41|1|1|-33.4621474|-70.6383407|https://www.portalinmobiliario.com/MLC-2253592068-departamento-carmen-id-91934-_JM#position=23&search_layout=grid&type=item&tracking_id=b1a63316-4ad1-4d30-bb63-4d97a68b3f3c
Arturo Prat, San Diego, Santiago, RM (Metropolitana)|3200|63|3|2|-33.4490601|-70.6492194|https://www.portalinmobiliario.com/MLC-1442314469-departamento-arturo-prat-id-47967-_JM#position=10&search_layout=grid&type=item&tracking_id=479a64ac-b4db-4747-96ed-f9eeb769ac5b
San Antonio/merced, Centro Histórico de Santiago, Santiago, RM (Metropolitana)|3816|115|4|2|-33.4379904|-70.6484916|https://www.portalinmobiliario.com/MLC-1478376801-departamento-en-venta-de-4-dorm-en-santiago-_JM#position=3&search_layout=grid&type=item&tracking_id=22c846a4-8db2-4cdf-9360-cb3db1e09ce6
Portugal/ Diagonal Paraguay, Santa Isabel, Santiago, RM (Metropolitana)|7500|108|4|3|-33.443144|-70.6374656|https://www.portalinmobiliario.com/MLC-1463440303-departamento-en-venta-de-4-dormitorios-en-santiago-_JM#position=23&search_layout=grid&type=item&tracking_id=d570d69c-33a2-4800-936c-b1b7af421e18
Eyzaguirre, Parque Almagro, Santiago, RM (Metropolitana)|2687|60|2|1|-33.4529214|-70.6507199|https://www.portalinmobiliario.com/MLC-2313650202-departamento-eyzaguirre-id-123158-_JM#position=37&search_layout=grid&type=item&tracking_id=6e951999-8e82-47f7-8d86-0cebf6b5a687
Manuel Antonio Tocornal 478, Santiago, Chile, Santa Isabel, Santiago, RM (Metropolitana)|1850|0|1|1|-33.4490926|-70.6402843|https://www.portalinmobiliario.com/MLC-2308061876-hermoso-departamento-_JM#position=47&search_layout=grid&type=item&tracking_id=6e3b6d58-9d4d-4192-9f0c-0de757ab7d35
Avenida Portugal, 415, Santa Isabel, Santiago, RM (Metropolitana)|2250|39|1|1|-33.447415|-70.635637|https://www.portalinmobiliario.com/MLC-2255674888-cerca-a-hospital-uc-en-venta-departamento-1-dorm-_JM#position=35&search_layout=grid&type=item&tracking_id=70748f2c-508c-40ba-a7a7-76ab9f1e63f0
En Venta Departamento Cercano A Estación Metro Ñuble, Bogotá - Sierra Bella, Santiago, RM (Metropolitana)|1881|50|2|2|-33.4667011|-70.6270935|https://www.portalinmobiliario.com/MLC-2318315532-departamento-en-venta-de-2-dorm-en-santiago-_JM#position=42&search_layout=grid&type=item&tracking_id=eeb6179b-87eb-4089-b4ec-1c78b2c2e104
|0|0|0|0|||https://www.portalinmobiliario.com/MLC-2337145232-departamento-en-paseo-bulnes-a-pasos-de-metro-moneda-_JM#position=29&search_layout=grid&type=item&tracking_id=5081b875-7f14-47b9-933a-f49cbd1f6177
Avenida Santa Rosa 249, Santiago, Chile, Bulnes, Santiago, RM (Metropolitana)|1585|30|1|1|-33.4473721|-70.6454916|https://www.portalinmobiliario.com/MLC-1465912275-departamento-a-pasos-metro-linea-1-bancos-malls-_JM#position=22&search_layout=grid&type=item&tracking_id=dd130a03-46fa-4ccd-b0ee-25e6c9cee5a7
San Martín 600 - 900, Santiago, Chile, Centro Histórico de Santiago, Santiago, RM (Metropolitana)|2203|42|2|1|-33.4337903|-70.659152|https://www.portalinmobiliario.com/MLC-1470343433-san-martin-870-condominio-centro-norte-santiago-_JM#position=1&search_layout=grid&type=item&tracking_id=07845d48-f48e-4d2d-8177-8db0ae602cd7
|0|0|0|0|||https://www.portalinmobiliario.com/MLC-1471712445-departamento-en-santiago-_JM#position=31&search_layout=grid&type=item&tracking_id=5f3427cd-b8da-4a35-aa22-08f3211398f4
Lord Cochrane 302, Santiago, Chile, Parque Almagro, Santiago, RM (Metropolitana)|3000|46|2|2|-33.4504443|-70.6544387|https://www.portalinmobiliario.com/MLC-1466032453-lindo-departamento-muy-iluminado-_JM#position=16&search_layout=grid&type=item&tracking_id=97cde6bc-01c1-469f-98d7-49e578b4afd5
San Isidro Con Eleuterio Ramirez, Santa Isabel, Santiago, RM (Metropolitana)|2553|69|0|0|-33.4502812|-70.6429674|https://www.portalinmobiliario.com/MLC-1457653289-san-isidro-con-eleuterio-ramirez-_JM#position=13&search_layout=grid&type=item&tracking_id=2f69ac8f-a00c-437f-b1b8-df202a04db5c
Rosas 2898, Santiago, Chile, Barrio Yungay, Santiago, RM (Metropolitana)|3245|70|1|1|-33.4372049|-70.6758169|https://www.portalinmobiliario.com/MLC-1478056553-maravilloso-loft-doble-altura-excelente-ubicacion-_JM#position=3&search_layout=grid&type=item&tracking_id=b87ae84a-6745-45d3-9ffc-07185c050657
Departamento En Venta De 3 Dorm. En Santiago, Bulnes, Santiago, RM (Metropolitana)|4650|84|3|2|-33.4453236|-70.6469136|https://www.portalinmobiliario.com/MLC-1441273183-departamento-en-venta-de-3-dorm-en-santiago-_JM#position=13&search_layout=grid&type=item&tracking_id=fb85d8b0-a7af-4fab-a9d2-928a311da63e
Avenida Manuel Rodríguez, Barrio Brasil, Santiago, RM (Metropolitana)|3800|58|2|2|-33.4360982|-70.6607617|https://www.portalinmobiliario.com/MLC-1469345267-departamento-avenida-manuel-rodriguez-id-40513-_JM#position=1&search_layout=grid&type=item&tracking_id=0f7da077-303f-4976-aa9e-a02565200f8b
Santa Lucia, Santa Isabel, Santiago, RM (Metropolitana)|3464|50|2|2|-33.4433823|-70.6446916|https://www.portalinmobiliario.com/MLC-2369302368-ocasion-venta-depto-con-mobiliario-2d-2b-est-san-isidro-_JM#position=26&search_layout=grid&type=item&tracking_id=162b65d3-5ff2-4403-98f6-2babfe1e82fe
San Martin/san Pablo, Centro Histórico de Santiago, Santiago, RM (Metropolitana)|3400|56|3|2|-33.4339735|-70.6587568|https://www.portalinmobiliario.com/MLC-1456714839-venta-departamento-san-martin-3-dormitorios-estacionamiento-_JM#position=27&search_layout=grid&type=item&tracking_id=06e9d37c-e4c7-42cc-8f32-41c52f1a460f
Departamento En Santiago Centro, Santa Isabel, Santiago, RM (Metropolitana)|3150|60|3|2|-33.4495132|-70.6404983|https://www.portalinmobiliario.com/MLC-2062826210-departamento-en-venta-santiago-centro-_JM#position=27&search_layout=grid&type=item&tracking_id=d50bcaf6-3b54-4598-affe-0fc55aa81089
Santo Domingo / Morande, Centro Histórico de Santiago, Santiago, RM (Metropolitana)|2050|39|1|1|-33.4367143|-70.6542235|https://www.portalinmobiliario.com/MLC-2297326004-departamento-en-venta-de-1-dorm-en-santiago-_JM#position=40&search_layout=grid&type=item&tracking_id=8c555f80-a5b5-4edc-a367-4bf34d2a90d0
Santo Domingo 1470, Santiago, Chile, Centro Histórico de Santiago, Santiago, RM (Metropolitana)|4700|82|2|2|-33.4370188|-70.6577238|https://www.portalinmobiliario.com/MLC-2073589190-impecable-departamento-con-amplios-espacios-_JM#position=38&search_layout=grid&type=item&tracking_id=bd9e874a-566e-485f-93cd-a1c587410e63
Nataniel Cox 13o2, Santiago, Chile, Bulnes, Santiago, RM (Metropolitana)|2600|52|3|2|-33.4453058|-70.6541936|https://www.portalinmobiliario.com/MLC-2163892272-departamento-con-estacionamiento-_JM#position=20&search_layout=grid&type=item&tracking_id=5d04377c-6937-4a26-8154-fb26f02add0f
Cerro Santa Lucia, Santa Isabel, Santiago, RM (Metropolitana)|6000|90|2|2|-33.4440247|-70.6435677|https://www.portalinmobiliario.com/MLC-1440666539-departamento-en-venta-de-2-dorm-en-santiago-_JM#position=10&search_layout=grid&type=item&tracking_id=ef61270b-cd58-4502-9b81-583dd0b0a3a3
Mac Iver/santo Domingo, Centro Histórico de Santiago, Santiago, RM (Metropolitana)|1990|34|1|1|-33.4357452|-70.6480792|https://www.portalinmobiliario.com/MLC-1465400677-departamento-en-venta-de-1-dorm-en-santiago-_JM#position=3&search_layout=grid&type=item&tracking_id=f3b094a8-3709-44e2-afc6-41c479c85c79
Argomedo 320, Santa Isabel, Santiago, RM (Metropolitana)|2800|52|2|1|-33.449883|-70.63562|https://www.portalinmobiliario.com/MLC-2085750640-edificio-argomedo-vista-oriente-piso-12-_JM#position=11&search_layout=grid&type=item&tracking_id=d60e6c37-694c-4d05-9f1b-51f6bc2102dc
José Miguel Carrera, 240 (jmc210), Ejército - Toesca, Santiago, RM (Metropolitana)|2350|51|2|1|-33.4505025|-70.6632013|https://www.portalinmobiliario.com/MLC-1464920195-jose-miguel-carrera-240-jmc210-_JM#position=16&search_layout=grid&type=item&tracking_id=f9b62b41-977e-400b-aafc-7dae576bf0ba
"Cercano A Metro Moneda | Colegio San Ignacio., Dieciocho, Santiago, RM (Metropolitana)"|2100|45|1|1|-33.4492548|-70.65611|https://www.portalinmobiliario.com/MLC-2154758598-departamento-en-venta-de-1-dorm-en-santiago-_JM#position=17&search_layout=grid&type=item&tracking_id=06431573-8873-4673-b76d-70fcefb48ac4
Coquimbo 777, Santiago Centro, Santiago, Chile, San Diego, Santiago, RM (Metropolitana)|2100|45|2|1|-33.4559047|-70.6454134|https://www.portalinmobiliario.com/MLC-1448200397-2-dorm-1-bano-bodega-en-santiago-metro-matta-l3-_JM#position=46&search_layout=grid&type=item&tracking_id=19c2411a-352c-4da1-8518-8ed69b0a4822
Dieciocho, Parque Almagro, Santiago, RM (Metropolitana)|2600|42|2|2|-33.4539601|-70.6565389|https://www.portalinmobiliario.com/MLC-2227188622-departamento-dieciocho-id-111590-_JM#position=1&search_layout=grid&type=item&tracking_id=fe6fe6ef-64eb-4a62-b350-0ed39423ca2d
Zenteno 1 - 300, Santiago, Chile, Bulnes, Santiago, RM (Metropolitana)|2359|44|1|1|-33.4472974|-70.6522803|https://www.portalinmobiliario.com/MLC-2191598658-departamento-1d-1b-excelente-ubicacion-santiago-_JM#position=21&search_layout=grid&type=item&tracking_id=dd130a03-46fa-4ccd-b0ee-25e6c9cee5a7
Vicuña Mackenna 1433, Bogotá - Sierra Bella, Santiago, RM (Metropolitana)|2600|43|2|1|-33.4610975|-70.6284465|https://www.portalinmobiliario.com/MLC-1475831863-departamento-en-venta-de-2-dorm-en-santiago-_JM#position=19&search_layout=grid&type=item&tracking_id=31680df8-d52e-42f4-8a30-8222d1c902d6
Metro Parque O’higgins/ Nataniel Cox/ Venta Sin Comisión, Parque O'Higgins, Santiago, RM (Metropolitana)|2360|38|1|1|-33.4625101|-70.6522954|https://www.portalinmobiliario.com/MLC-1443019065-cercano-al-metro-parque-ohiggins-con-venta-sin-comision-_JM#position=28&search_layout=grid&type=item&tracking_id=221b4f95-b050-4621-8c6f-e63e754a5487
Almirante Latorre 260, Barrio República, Santiago, RM (Metropolitana)|3200|78|3|1|-33.4511099|-70.6645237|https://www.portalinmobiliario.com/MLC-2383661908-departamento-en-venta-de-3-dormitorios-en-santiago-_JM#position=46&search_layout=grid&type=item&tracking_id=dfa401a5-9e9e-4e75-8e65-fc63d4cbde22
Lord Cochrane 1 - 300, Santiago, Chile, Bulnes, Santiago, RM (Metropolitana)|3700|55|2|2|-33.4493194|-70.6544736|https://www.portalinmobiliario.com/MLC-2255767286-vende-departamento-con-bodega-en-lord-cochrane-santiago-_JM#position=42&search_layout=grid&type=item&tracking_id=98d86d59-1cf9-435d-bf9f-4b9f369b3137
Cercano Al Parque Los Reyes, Parque Los Reyes, Santiago, RM (Metropolitana)|1550|35|2|1|-33.4296313|-70.6751765|https://www.portalinmobiliario.com/MLC-2331470966-departamento-en-venta-de-2-dorm-en-santiago-_JM#position=46&search_layout=grid&type=item&tracking_id=030364f5-77bc-491f-b366-9b2612cd13f0
Tucapel Jimenez // Moneda, Centro Histórico de Santiago, Santiago, RM (Metropolitana)|2150|44|1|1|-33.4423426|-70.6592768|https://www.portalinmobiliario.com/MLC-2117622428-departamento-tucapel-jimenez-moneda-id-78652-_JM#position=8&search_layout=grid&type=item&tracking_id=52c66a21-3a5f-4481-aa8b-cc047b745c78
Morandé 626, Santiago, Chile, Centro Histórico de Santiago, Santiago, RM (Metropolitana)|2380|48|2|1|-33.4363182|-70.6542768|https://www.portalinmobiliario.com/MLC-2061245642-venta-departamento-santiago-centro-metro-santa-ana-_JM#position=37&search_layout=grid&type=item&tracking_id=be84efed-8c56-4731-8f66-f7d3471098e6
Romero 2385, Santiago, Chile, Barrio Yungay, Santiago, RM (Metropolitana)|1263|35|1|1|-33.4465876|-70.6690086|https://www.portalinmobiliario.com/MLC-1466003987-se-vende-departamento-1-dormitorio-en-romero-santiago-_JM#position=22&search_layout=grid&type=item&tracking_id=da4bba1b-0849-4dc7-a699-7f14cdbb36d3
General Jofré, Santa Isabel, Santiago, RM (Metropolitana)|3800|70|3|2|-33.4444459|-70.6347331|https://www.portalinmobiliario.com/MLC-2097298110-departamento-general-jofre-id-117003-_JM#position=32&search_layout=grid&type=item&tracking_id=11d863d4-fae8-48a8-b5b9-dd18472c5224
Barrio Diez de Julio, Santiago, RM (Metropolitana)|3014|59|2|2|-33.451615|-70.640756|https://www.portalinmobiliario.com/MLC-2349628010-departamento-en-venta-2d2b-bdga-santiago-centro-_JM#position=18&search_layout=grid&type=item&tracking_id=4c8b3c96-250c-4842-82c7-a83e71464974
Santo Domingo 1457, Santiago, Chile, Centro Histórico de Santiago, Santiago, RM (Metropolitana)|4640|78|2|2|-33.4367733|-70.6577644|https://www.portalinmobiliario.com/MLC-1436317181-hermoso-departamento-piso-11-_JM#position=22&search_layout=grid&type=item&tracking_id=b1d873fb-aff6-4adb-ab65-ba5a75f26ed0
Portugal Esquina Santa Isabel, Santa Isabel, Santiago, RM (Metropolitana)|3350|56|2|2|-33.4485827|-70.6350484|https://www.portalinmobiliario.com/MLC-2348047156-portugal-esquina-santa-isabel-_JM#position=9&search_layout=grid&type=item&tracking_id=3978bf09-3ea8-4347-90e7-66a17aa31072
Abate Molina, Barrio República, Santiago, RM (Metropolitana)|3883|47|2|1|-33.4578642|-70.6721823|https://www.portalinmobiliario.com/MLC-1473616825-abate-molina-25366-_JM#position=40&search_layout=grid&type=item&tracking_id=28d4d42e-fc8c-4b11-a745-841d48062c1c
Cercano A Teatro Teleton, Centro Histórico de Santiago, Santiago, RM (Metropolitana)|3770|56|1|1|-33.4370425|-70.6579253|https://www.portalinmobiliario.com/MLC-1472746681-departamento-en-venta-de-1-dorm-en-santiago-_JM#position=9&search_layout=grid&type=item&tracking_id=f96ba0b0-3de0-4104-8e3c-5e6c8dd0cf46
Coquimbo 777, San Diego, Santiago, RM (Metropolitana)|2277|51|2|1|-33.4559047|-70.6454134|https://www.portalinmobiliario.com/MLC-1404075895-departamento-en-venta-2-dormitorios-y-1-bano-2d-1b-_JM#position=35&search_layout=grid&type=item&tracking_id=84c27398-c5c1-449f-b543-ec3b2ad13dae
Lira 570, Santa Isabel, Santiago, RM (Metropolitana)|3700|64|2|2|-33.4497278|-70.6384449|https://www.portalinmobiliario.com/MLC-1418803829-departamento-en-venta-de-2-dorm-en-santiago-_JM#position=44&search_layout=grid&type=item&tracking_id=00fd1c14-15ca-45b1-8deb-44cba1879f11
Arturo Prat, 399, San Diego, Santiago, RM (Metropolitana)|3000|70|2|2|-33.4500115|-70.6493301|https://www.portalinmobiliario.com/MLC-2375630944-venta-departamento-2hab-2ba-santiago-_JM#position=20&search_layout=grid&type=item&tracking_id=89e952a9-a81f-45d4-83b3-f404e1f577b6
Centro Histórico de Santiago, Santiago, RM (Metropolitana)|2200|27|1|1|-33.433754|-70.659159|https://www.portalinmobiliario.com/MLC-1470037275-departamento-ideal-para-inversion-cercano-a-metro-_JM#position=3&search_layout=grid&type=item&tracking_id=06e9d37c-e4c7-42cc-8f32-41c52f1a460f
Catedral 3033, Santiago, Chile, Barrio Yungay, Santiago, RM (Metropolitana)|2890|56|2|2|-33.4398016|-70.6769323|https://www.portalinmobiliario.com/MLC-1474655703-se-vende-dpto-2d2b-en-barrio-historico-yungai-_JM#position=44&search_layout=grid&type=item&tracking_id=555da293-94ea-4d7a-8a9e-13990a6993fc
Av. Manuel Rodríguez Con Santo Domingo, Centro Histórico de Santiago, Santiago, RM (Metropolitana)|1650|32|1|1|-33.4376371|-70.6581667|https://www.portalinmobiliario.com/MLC-2374836198-departamento-en-venta-de-1-dorm-en-santiago-_JM#position=26&search_layout=grid&type=item&tracking_id=49943384-f989-4205-b91b-6e8f87608dc8
Acogedor Dpto 1 Dormitorio, 1 Baño Metro Santa Ana /l5, Centro Histórico de Santiago, Santiago, RM (Metropolitana)|1850|32|1|1|-33.4403487|-70.6580183|https://www.portalinmobiliario.com/MLC-1467845423-acogedor-dpto-1-dormitorio-1-bano-metro-santa-ana-l5-_JM#position=43&search_layout=grid&type=item&tracking_id=cac34015-82c8-48da-84ce-baa4479e3461
Santo Domingo, Centro Histórico de Santiago, Santiago, RM (Metropolitana)|4600|78|3|2|-33.4366262|-70.6571769|https://www.portalinmobiliario.com/MLC-2244702980-departamento-en-venta-en-santiago-_JM#position=12&search_layout=grid&type=item&tracking_id=84b2d68f-4be8-446f-bd0e-3fb7685c8a61
Plaza Brasil, Barrio Brasil, Santiago, RM (Metropolitana)|2100|36|1|1|-33.4382834|-70.6635963|https://www.portalinmobiliario.com/MLC-2041202410-departamento-en-venta-de-1-dorm-en-santiago-_JM#position=35&search_layout=grid&type=item&tracking_id=1bdbfddc-f1a0-4b7b-ae67-70a318523365
1d 1b (1bod ,1est) Se Reciben Ofertas, Barrio República, Santiago, RM (Metropolitana)|2800|38|1|1|-33.4576235|-70.669614|https://www.portalinmobiliario.com/MLC-2210272636-1d-1b-1bod-1est-se-reciben-ofertas-_JM#position=40&search_layout=grid&type=item&tracking_id=13999c8a-d1f2-4118-9b20-8e946852e19a
San Ignacio De Loyola, Parque Almagro, Santiago, RM (Metropolitana)|1800|33|1|1|-33.4566164|-70.655479|https://www.portalinmobiliario.com/MLC-1438412077-departamento-san-ignacio-de-loyola-id-115927-_JM#position=21&search_layout=grid&type=item&tracking_id=cc3e9985-9fc0-4e7c-86ab-0563e313939a
Ma - Tocornal Esquina Santa Isabel, Santa Isabel, Santiago, RM (Metropolitana)|2390|38|1|1|-33.4488927|-70.6407097|https://www.portalinmobiliario.com/MLC-2320729382-depto-1dorm-1-bano-vista-oriente-3638m2-tocornal-455-_JM#position=44&search_layout=grid&type=item&tracking_id=5e123917-8ae4-4fbc-af57-c075ac0a25c3
Av. Matta, 747, San Diego, Santiago, RM (Metropolitana)|1700|30|1|1|-33.458209|-70.644207|https://www.portalinmobiliario.com/MLC-2371426922-solo-para-inversionistas-_JM#position=17&search_layout=grid&type=item&tracking_id=13777f65-dacc-4b37-b57f-c538378a588b
Departamento Venta 2d2b1e Santiago, Santa Isabel, Santiago, RM (Metropolitana)|3300|53|2|2|-33.4445609|-70.6443204|https://www.portalinmobiliario.com/MLC-1475255597-departamento-venta-2d2b1e-santiago-12887-_JM#position=11&search_layout=grid&type=item&tracking_id=50919d6c-0457-45fd-b52c-646022aa7f6f
San Francisco - Tarapaca, Bulnes, Santiago, RM (Metropolitana)|2250|32|1|1|-33.4475085|-70.6472691|https://www.portalinmobiliario.com/MLC-2208689650-departamento-en-venta-en-santiago-_JM#position=40&search_layout=grid&type=item&tracking_id=69e6846c-1d9e-4a40-a0cd-386846634b40
Lord Cochrane 796, Parque Almagro, Santiago, RM (Metropolitana)|1150|28|1|1|-33.4558352|-70.6536848|https://www.portalinmobiliario.com/MLC-1465978151-departamento-en-venta-de-1-dorm-en-santiago-_JM#position=8&search_layout=grid&type=item&tracking_id=d055177d-acc3-4715-9fd0-810727db43a5
Torre San Borja , Hospital Universidad Catolica, Barrio San Borja, Santiago, RM (Metropolitana)|3243|70|3|1|-33.4430096|-70.6394779|https://www.portalinmobiliario.com/MLC-2099496084-departamento-en-venta-de-3-dorm-en-santiago-_JM#position=36&search_layout=grid&type=item&tracking_id=84c27398-c5c1-449f-b543-ec3b2ad13dae
Eleuterio Ramírez 600 - 900, Santiago, Chile, Bulnes, Santiago, RM (Metropolitana)|3490|76|3|2|-33.4483639|-70.6473188|https://www.portalinmobiliario.com/MLC-2109805290-se-vende-departamento-en-comuna-de-santiago-_JM#position=34&search_layout=grid&type=item&tracking_id=028e1403-868e-4d2f-ba9a-cb1e2d4c4752
Oportunidad Inversión Dpto 2d1b Y Bodega, Parque Los Reyes, Santiago, RM (Metropolitana)|1612|46|2|1|-33.4324131|-70.6775044|https://www.portalinmobiliario.com/MLC-1478335835-oportunidad-inversion-dpto-2d1b-y-bodega-27667-_JM#position=32&search_layout=grid&type=item&tracking_id=64df58f2-3ec4-45f4-8a50-e80c8a66a26a
Presidente Balmaceda, Parque Los Reyes, Santiago, RM (Metropolitana)|2990|69|3|2|-33.4270391|-70.6771933|https://www.portalinmobiliario.com/MLC-1445184691-departamento-en-venta-de-3-dorm-en-presidente-balmaceda-_JM#position=29&search_layout=grid&type=item&tracking_id=030364f5-77bc-491f-b366-9b2612cd13f0
Bulnes, Santiago, RM (Metropolitana)|2725|42|2|1|-33.4473122|-70.6469739|https://www.portalinmobiliario.com/MLC-1465534013-san-francisco-con-tarapaca-orientacion-oriente-_JM#position=37&search_layout=grid&type=item&tracking_id=7e8ec5ac-2a0f-4a76-b794-1e4d8f2968f1
General Gana 1200 - 1500, Santiago, Chile, Franklin - Biobío, Santiago, RM (Metropolitana)|3040|58|2|1|-33.471224|-70.6513124|https://www.portalinmobiliario.com/MLC-2117109106-general-gana-metro-rondizzonni-_JM#position=11&search_layout=grid&type=item&tracking_id=99f60eaa-8e14-45ee-9e01-d7188c481cb1
Barrio Lastarria, Barrio Lastarria, Santiago, RM (Metropolitana)|3308|52|1|1|-33.4372655|-70.6414056|https://www.portalinmobiliario.com/MLC-1478098653-excelente-1-dormitorio-a-pasos-del-barrio-lastarria-museos-_JM#position=43&search_layout=grid&type=item&tracking_id=21d5f292-c3a4-4509-9324-8684731a6cd3
Garcia Reyes, 81, Barrio Yungay, Santiago, RM (Metropolitana)|2100|31|1|1|-33.4448935|-70.6708527|https://www.portalinmobiliario.com/MLC-1470434377-venta-departamento-1hab-1ba-santiago-_JM#position=24&search_layout=grid&type=item&tracking_id=555da293-94ea-4d7a-8a9e-13990a6993fc
Fray Camilo Henríquez 190, Santa Isabel, Santiago, RM (Metropolitana)|1950|37|1|1|-33.444363|-70.635368|https://www.portalinmobiliario.com/MLC-2367355020-edificio-fray-camilo-henriquez-vista-sur-piso-24-_JM#position=48&search_layout=grid&type=item&tracking_id=93d77489-ba8c-4a5c-b224-0cbab2752f6c
Parque Almagro, Santiago, RM (Metropolitana)|2750|34|1|1|-33.45087|-70.65427|https://www.portalinmobiliario.com/MLC-2325740466-venta-de-lindo-departamento-en-centro-de-santiago-_JM#position=33&search_layout=grid&type=item&tracking_id=4c8b3c96-250c-4842-82c7-a83e71464974
En Venta Departamento En Parque De Los Reyes, Parque Los Reyes, Santiago, RM (Metropolitana)|2056|64|3|2|-33.4269062|-70.6771483|https://www.portalinmobiliario.com/MLC-1455838687-departamento-en-venta-de-3-dorm-en-santiago-_JM#position=40&search_layout=grid&type=item&tracking_id=4aad1e5b-ef77-4198-82c2-2fbed9ffeb76
Santiago, Parque O'Higgins, Santiago, RM (Metropolitana)|2520|34|1|1|-33.46259|-70.65221|https://www.portalinmobiliario.com/MLC-2109849894-oportunidad-excelente-ubicacion-_JM#position=15&search_layout=grid&type=item&tracking_id=b2ec1abd-3dbc-4307-84f4-db2442c167f8
Catedral 900 - 1200, Santiago, Chile, Centro Histórico de Santiago, Santiago, RM (Metropolitana)|6650|120|3|2|-33.4373471|-70.6527128|https://www.portalinmobiliario.com/MLC-1442594377-vende-excelente-depto3-d-2b-gran-terraza-estacionamiento-_JM#position=11&search_layout=grid&type=item&tracking_id=84b2d68f-4be8-446f-bd0e-3fb7685c8a61
San Diego, San Diego, Santiago, RM (Metropolitana)|1850|36|1|1|-33.4491533|-70.6497086|https://www.portalinmobiliario.com/MLC-1475475803-san-diego-22387-_JM#position=32&search_layout=grid&type=item&tracking_id=479a64ac-b4db-4747-96ed-f9eeb769ac5b
Cueto 600 - 900, Santiago, Chile, Barrio Yungay, Santiago, RM (Metropolitana)|2980|53|2|2|-33.4362648|-70.6726345|https://www.portalinmobiliario.com/MLC-1475886431-bello-depto-de-2d-2b-1bd-metro-cumming-santiago-_JM#position=10&search_layout=grid&type=item&tracking_id=34b36a08-9978-4dbe-aaa8-213ba5b391fc
Eleuterio Ramirez 1291, Bulnes, Santiago, RM (Metropolitana)|2505|29|1|1|-33.449764|-70.653114|https://www.portalinmobiliario.com/MLC-1438474459-edificio-eleuterio-ramirez-vista-oriente-piso-19-_JM#position=26&search_layout=grid&type=item&tracking_id=fb85d8b0-a7af-4fab-a9d2-928a311da63e
San Francisco / Eleuterio Ramírez, San Diego, Santiago, RM (Metropolitana)|1990|33|1|1|-33.4491744|-70.6466463|https://www.portalinmobiliario.com/MLC-1463478467-venta-departamento-santiago-santa-lucia-1-dormitorio-_JM#position=23&search_layout=grid&type=item&tracking_id=d2548354-e2f9-417c-b525-a595a550e10c
Carmen 433, Santiago, Chile, Santa Isabel, Santiago, RM (Metropolitana)|3250|55|2|2|-33.4492668|-70.6418896|https://www.portalinmobiliario.com/MLC-2341593746-oportunidad-impecable-departamento-2-dormitorios-_JM#position=34&search_layout=grid&type=item&tracking_id=00fd1c14-15ca-45b1-8deb-44cba1879f11
Se Vende En Mapocho 1522, Centro Histórico de Santiago, Santiago, RM (Metropolitana)|1424|31|1|1|-33.4321176|-70.6591836|https://www.portalinmobiliario.com/MLC-1471738813-se-vende-en-mapocho-1522-_JM#position=40&search_layout=grid&type=item&tracking_id=0ca39672-0ea5-4efa-9c9d-25851a13f3de
Domeyko 2010, Santiago, Chile, Ejército - Toesca, Santiago, RM (Metropolitana)|3950|52|2|2|-33.4561567|-70.6627879|https://www.portalinmobiliario.com/MLC-1478349137-venta-de-departamento-en-barrio-universitario-domeyko-2010-_JM#position=16&search_layout=grid&type=item&tracking_id=cb989e76-6b87-4c2f-a702-bd2fce358c1a
Avenida Portugal 300 - 600, Santiago, Chile, Santa Isabel, Santiago, RM (Metropolitana)|2200|31|1|1|-33.4491332|-70.6349406|https://www.portalinmobiliario.com/MLC-1454457915-venta-departamento-1-dorm-portugal-_JM#position=11&search_layout=grid&type=item&tracking_id=ef61270b-cd58-4502-9b81-583dd0b0a3a3
Metro Republica - 2 Dormitorios En Venta, Ejército - Toesca, Santiago, RM (Metropolitana)|2490|61|2|1|-33.4507413|-70.6644483|https://www.portalinmobiliario.com/MLC-1463275411-departamento-en-venta-de-2-dorm-en-santiago-_JM#position=43&search_layout=grid&type=item&tracking_id=d9cf5051-2805-4736-81f7-3a7a95513857
Ejército - Toesca, Santiago, RM (Metropolitana)|23300|253|13|13|-33.4513848|-70.6628742|https://www.portalinmobiliario.com/MLC-2361617640-regio-motel-puertas-cerradas-club-hipico-_JM#position=42&search_layout=grid&type=item&tracking_id=6e3687e4-55ff-4950-ba01-447ca3ee5f7b
Sargento Aldea Con San Diego, Parque O'Higgins, Santiago, RM (Metropolitana)|2350|37|2|1|-33.4687803|-70.6490745|https://www.portalinmobiliario.com/MLC-2117521156-dpto-en-venta-2d1b-santiago-metro-rondizzoni-_JM#position=45&search_layout=grid&type=item&tracking_id=b2ec1abd-3dbc-4307-84f4-db2442c167f8
Amunátegui, Centro Histórico de Santiago, Santiago, RM (Metropolitana)|3400|63|2|2|-33.4334103|-70.6576037|https://www.portalinmobiliario.com/MLC-2330332912-departamento-amunategui-id-105274-_JM#position=37&search_layout=grid&type=item&tracking_id=8347844a-839a-46b3-8614-b81ba32195e1
"Santa Victoria | Lira  | Santa Isabel, Santa Isabel, Santiago, RM (Metropolitana)"|4568|57|2|2|-33.447863|-70.6381078|https://www.portalinmobiliario.com/MLC-2131178620-santa-victoria-lira-santa-isabel-_JM#position=39&search_layout=grid&type=item&tracking_id=8f23322d-dc57-45e6-8f55-f23cbf9b140a
Departamento 2d+1b, Centro De Santiago, Santa Isabel, Santiago, RM (Metropolitana)|1881|40|2|1|-33.447808|-70.6436959|https://www.portalinmobiliario.com/MLC-1477874195-departamento-2d1b-centro-de-santiago-27443-_JM#position=6&search_layout=grid&type=item&tracking_id=1b2ac868-87b2-4cb4-b9fe-5c97faa2dccc
General Gana Con San Diego, Franklin - Biobío, Santiago, RM (Metropolitana)|2250|32|1|1|-33.4707988|-70.6478797|https://www.portalinmobiliario.com/MLC-1471734075-general-gana-con-san-diego-_JM#position=15&search_layout=grid&type=item&tracking_id=99f60eaa-8e14-45ee-9e01-d7188c481cb1
Funcional Comodo Y Centrico, Bulnes, Santiago, RM (Metropolitana)|2990|61|2|2|-33.4483639|-70.6473188|https://www.portalinmobiliario.com/MLC-2134782662-funcional-comodo-y-centrico-6924-_JM#position=43&search_layout=grid&type=item&tracking_id=7e8ec5ac-2a0f-4a76-b794-1e4d8f2968f1
Santo Domingo / Catedral, Centro Histórico de Santiago, Santiago, RM (Metropolitana)|2790|52|2|1|-33.4367484|-70.6544711|https://www.portalinmobiliario.com/MLC-2134978546-departamento-con-inmejorable-conectividad-_JM#position=3&search_layout=grid&type=item&tracking_id=49943384-f989-4205-b91b-6e8f87608dc8
Ejército - Toesca, Santiago, RM (Metropolitana)|6655|76|2|2|-33.4560337|-70.6638898|https://www.portalinmobiliario.com/MLC-2090403338-venta-nuevo-2hab-2banos-bodega-y-estac-metro-toesca-_JM#position=29&search_layout=grid&type=item&tracking_id=b05586f8-2e03-41b0-89b8-331f8affd440
San Ignacio 633, Santiago, Chile, Parque Almagro, Santiago, RM (Metropolitana)|2190|41|1|1|-33.4539477|-70.6559472|https://www.portalinmobiliario.com/MLC-1476628747-condominio-metro-stylo-toesca-dpto-2707-santiago-_JM#position=30&search_layout=grid&type=item&tracking_id=cb989e76-6b87-4c2f-a702-bd2fce358c1a
General Bulnes 259, Depto 217, Barrio Yungay, Santiago, RM (Metropolitana)|3760|41|1|1|-33.4419964|-70.669845|https://www.portalinmobiliario.com/MLC-1473037447-se-vende-depto-217-de-1d1b-en-edificio-espacio-huerfanos-sa-_JM#position=13&search_layout=grid&type=item&tracking_id=5575e832-fec4-4dea-ac39-565149c89577
Argomedo / Vicuña Mackenna, Santa Isabel, Santiago, RM (Metropolitana)|3700|64|3|1|-33.4493449|-70.6334971|https://www.portalinmobiliario.com/MLC-2117661192-departamento-argomedo-vicuna-mackenna-id-94616-_JM#position=44&search_layout=grid&type=item&tracking_id=162b65d3-5ff2-4403-98f6-2babfe1e82fe
Marcoleta 462, Santa Isabel, Santiago, RM (Metropolitana)|2550|30|1|1|-33.443523|-70.642288|https://www.portalinmobiliario.com/MLC-2085732046-edificio-marcoleta-vista-oriente-piso-10-_JM#position=33&search_layout=grid&type=item&tracking_id=b7b94dda-a62c-4545-ae6f-499b2f0dce65
Santa Rosa 202, Santa Isabel, Santiago, RM (Metropolitana)|2848|54|2|2|-33.4463252|-70.6452289|https://www.portalinmobiliario.com/MLC-2383645308-arayabroker-vende-departamento-con-excelente-ubicacion-en-sa-_JM#position=22&search_layout=grid&type=item&tracking_id=ae078f09-9f02-426a-a7a3-c76c48996a6a
Moneda 3044, Barrio Yungay, Santiago, RM (Metropolitana)|3395|71|3|2|-33.4449804|-70.6765136|https://www.portalinmobiliario.com/MLC-2101020628-departamento-en-venta-de-3-dorm-2-banos-comuna-de-santiago-_JM#position=38&search_layout=grid&type=item&tracking_id=28182483-46bd-4b78-b26d-8f3e955d1a32
Catedral 2165, Barrio Brasil, Santiago, RM (Metropolitana)|2800|43|2|2|-33.4388673|-70.6666855|https://www.portalinmobiliario.com/MLC-1478024939-refv11245-gran-oportunidad-de-inversion-2d2b-metro-_JM#position=29&search_layout=grid&type=item&tracking_id=3c68a156-359e-45e6-8ef2-690f1500b577
Tarapacá 1200 - 1500, Santiago, Chile, Bulnes, Santiago, RM (Metropolitana)|1950|38|1|1|-33.4479637|-70.6541797|https://www.portalinmobiliario.com/MLC-1473484959-vendo-dpto-1d1b-metro-moneda-tarapaca-1324-_JM#position=25&search_layout=grid&type=item&tracking_id=dd130a03-46fa-4ccd-b0ee-25e6c9cee5a7
Compañía De Jesús 1500 - 1800, Santiago, Chile, Barrio Brasil, Santiago, RM (Metropolitana)|3500|74|2|2|-33.4396055|-70.6622272|https://www.portalinmobiliario.com/MLC-2340185174-compania-casco-antiguo-santiago-centro-_JM#position=25&search_layout=grid&type=item&tracking_id=eb609bb0-7d42-4cfe-86bb-e04898ff9373
Lord Cochrane, Parque O'Higgins, Santiago, RM (Metropolitana)|1800|60|1|1|-33.4613067|-70.6532446|https://www.portalinmobiliario.com/MLC-2311163286-lord-cochrane-a-5-minutos-del-metro-moneda-_JM#position=46&search_layout=grid&type=item&tracking_id=e0db2cf9-9e02-4b77-afb8-9db15e17b3fb
Excelente Departamento En Santiago, San Diego, Santiago, RM (Metropolitana)|2150|36|1|1|-33.4485597|-70.6464721|https://www.portalinmobiliario.com/MLC-2369405932-excelente-departamento-en-santiago-14346-_JM#position=28&search_layout=grid&type=item&tracking_id=3feece92-1d5a-4cdc-b4f3-c240013cad42
Santa Isabel 502, Santa Isabel, Santiago, RM (Metropolitana)|1450|35|1|1|-33.4503421|-70.6419877|https://www.portalinmobiliario.com/MLC-2380351954-excelente-departamento-muy-buena-ubicacion-_JM#position=25&search_layout=grid&type=item&tracking_id=cb989e76-6b87-4c2f-a702-bd2fce358c1a
Avenida Portugal 810, Santiago, Chile, Barrio Diez de Julio, Santiago, RM (Metropolitana)|3590|65|2|2|-33.4528418|-70.6339946|https://www.portalinmobiliario.com/MLC-2273516262-casi-nuevo-amplio-terraza-estac-y-bod-subte-metro-cerca-_JM#position=30&search_layout=grid&type=item&tracking_id=4f4e1fc5-3644-4d6e-a5dc-89174a8d85c2
Departamento Cercano Al Parque O¨higgins, Parque O'Higgins, Santiago, RM (Metropolitana)|2650|57|2|2|-33.4613067|-70.6532446|https://www.portalinmobiliario.com/MLC-2353490144-departamento-cercano-al-parque-ohiggins-8288-_JM#position=18&search_layout=grid&type=item&tracking_id=3121f85d-535d-45e2-805e-a650afc0f2b2
Eyzaguirre 819, San Diego, Santiago, RM (Metropolitana)|3100|40|1|1|-33.45203|-70.646828|https://www.portalinmobiliario.com/MLC-1437608771-edificio-eyzaguirre-1-bod-vista-sur-piso-9-_JM#position=6&search_layout=grid&type=item&tracking_id=31dba42f-d1f5-4994-b25d-c82b3973d5dd
Excelente Ubicación, Bogotá - Sierra Bella, Santiago, RM (Metropolitana)|1890|38|2|1|-33.4663656|-70.6278835|https://www.portalinmobiliario.com/MLC-2342215772-excelente-ubicacion-14243-_JM#position=25&search_layout=grid&type=item&tracking_id=9af62994-e79b-4457-975c-89d4169b2d42
Grajales 1800 - 2100, Santiago, Chile, Ejército - Toesca, Santiago, RM (Metropolitana)|2472|58|2|1|-33.4509435|-70.6613044|https://www.portalinmobiliario.com/MLC-2388751296-departamento-en-venta-grajales-santiago-_JM#position=6&search_layout=grid&type=item&tracking_id=87232290-ac01-41e0-9258-bb82b93ea661
Santa Isabel/carmen, Santa Isabel, Santiago, RM (Metropolitana)|2526|46|3|1|-33.449667|-70.641216|https://www.portalinmobiliario.com/MLC-2340767190-departamento-santa-isabelcarmen-_JM#position=30&search_layout=grid&type=item&tracking_id=a641bcb9-690b-417a-9aef-71503f226b7a
Avenida Santa Rosa 835, Santiago, Chile, San Diego, Santiago, RM (Metropolitana)|2600|59|3|2|-33.4550879|-70.6440143|https://www.portalinmobiliario.com/MLC-1476679205-santa-rosa-metro-matta-piso-12-norte-3d-2b-1-bx-1-bga-_JM#position=25&search_layout=grid&type=item&tracking_id=0622dfbd-7753-4981-b918-d3fdfe03f135
Cueto, Barrio Yungay, Santiago, RM (Metropolitana)|2100|40|2|2|-33.4362648|-70.6726345|https://www.portalinmobiliario.com/MLC-1444565065-departamento-cueto-id-35511-_JM#position=42&search_layout=grid&type=item&tracking_id=c0ca3a4d-16e8-4b3e-a32c-ca17797820c3
Metro Parque Almagro, Parque Almagro, Santiago, RM (Metropolitana)|3500|64|3|2|-33.4529214|-70.6507199|https://www.portalinmobiliario.com/MLC-1469000303-departamento-en-venta-de-3-dorm-en-santiago-_JM#position=2&search_layout=grid&type=item&tracking_id=fe6fe6ef-64eb-4a62-b350-0ed39423ca2d
Argomedo / Portugal, Santa Isabel, Santiago, RM (Metropolitana)|3500|62|2|2|-33.4500814|-70.6356379|https://www.portalinmobiliario.com/MLC-1475881901-argomedo-portugal-_JM#position=27&search_layout=grid&type=item&tracking_id=5de835be-8d08-4808-b8ad-98bffbb400d6
Inversionistas, San Diego, Santiago, RM (Metropolitana)|2590|52|2|1|-33.4485063|-70.6450686|https://www.portalinmobiliario.com/MLC-1473901801-inversionistas-25510-_JM#position=43&search_layout=grid&type=item&tracking_id=19c2411a-352c-4da1-8518-8ed69b0a4822
Eleuterio Ramírez, Parque Almagro, Santiago, RM (Metropolitana)|6800|139|4|2|-33.4499856|-70.6530532|https://www.portalinmobiliario.com/MLC-2117648318-departamento-eleuterio-ramirez-id-39088-_JM#position=21&search_layout=grid&type=item&tracking_id=d570d69c-33a2-4800-936c-b1b7af421e18
Coquimbo 1331, Santiago, Chile, Parque Almagro, Santiago, RM (Metropolitana)|2902|68|3|2|-33.4573226|-70.6524361|https://www.portalinmobiliario.com/MLC-2094580844-departamento-nataniel-cox-coquimbo-3d-2b-_JM#position=44&search_layout=grid&type=item&tracking_id=fe6fe6ef-64eb-4a62-b350-0ed39423ca2d
Agustinas 1612, Santiago, Chile, Centro Histórico de Santiago, Santiago, RM (Metropolitana)|1600|30|1|1|-33.4419532|-70.659432|https://www.portalinmobiliario.com/MLC-1470420213-vendo-depto-1-dormitorio-cercano-metro-santa-ana-_JM#position=26&search_layout=grid&type=item&tracking_id=8a9b04e0-0149-45bf-a8d6-f46fa7f16269
Espacioso Departamento En Venta En Barrio Brasil, Barrio Brasil, Santiago, RM (Metropolitana)|2687|97|3|2|-33.43776|-70.6622967|https://www.portalinmobiliario.com/MLC-2381816892-espacioso-departamento-en-venta-en-barrio-brasil-_JM#position=7&search_layout=grid&type=item&tracking_id=3c68a156-359e-45e6-8ef2-690f1500b577
Matucana 1161, Santiago, Chile, Parque Los Reyes, Santiago, RM (Metropolitana)|3250|53|2|1|-33.4322604|-70.6802696|https://www.portalinmobiliario.com/MLC-2212379330-matucana-mapocho-incluye-estacionamiento-_JM#position=41&search_layout=grid&type=item&tracking_id=101a90e7-e1a4-4b22-a237-fd30b843ae5b
Avenida Santa Rosa, Barrio Diez de Julio, Santiago, RM (Metropolitana)|2350|40|1|1|-33.4521614|-70.6437304|https://www.portalinmobiliario.com/MLC-2117635252-departamento-avenida-santa-rosa-id-77176-_JM#position=41&search_layout=grid&type=item&tracking_id=4f4e1fc5-3644-4d6e-a5dc-89174a8d85c2
Santa Isabel, Santa Isabel, Santiago, RM (Metropolitana)|2553|73|3|2|-33.4481135|-70.6399682|https://www.portalinmobiliario.com/MLC-2350148364-santa-isabel-_JM#position=22&search_layout=grid&type=item&tracking_id=a641bcb9-690b-417a-9aef-71503f226b7a
Sazié, Ejército - Toesca, Santiago, RM (Metropolitana)|2990|46|1|1|-33.450221|-70.6638173|https://www.portalinmobiliario.com/MLC-2117635450-departamento-sazie-id-64143-_JM#position=13&search_layout=grid&type=item&tracking_id=861e6a3f-e77a-4c7e-bc20-867c51f8dae7
Calle San Ignacio De Loyola 273, Santiago, Chile, Dieciocho, Santiago, RM (Metropolitana)|3104|77|3|2|-33.4500474|-70.6568582|https://www.portalinmobiliario.com/MLC-2113354556-departamento-metro-toesca-3-dormitorios-2-banos-bodega-_JM#position=22&search_layout=grid&type=item&tracking_id=06431573-8873-4673-b76d-70fcefb48ac4
Catedral/san Martin, Centro Histórico de Santiago, Santiago, RM (Metropolitana)|2200|44|2|2|-33.4380944|-70.6575077|https://www.portalinmobiliario.com/MLC-2216450658-venta-departamento-en-santiago-centro-2-dormitorios-2-banos-_JM#position=4&search_layout=grid&type=item&tracking_id=130d45e9-a3ff-4952-8064-9797a7092027
Fray Camilo Henríquez 600 - 900, Santiago, Chile, Barrio Diez de Julio, Santiago, RM (Metropolitana)|2338|45|2|2|-33.4509966|-70.6331349|https://www.portalinmobiliario.com/MLC-1475702155-luminoso-departamento-de-2-dormitorios-en-fray-camilo-_JM#position=16&search_layout=grid&type=item&tracking_id=b7926041-5dfe-4da6-8510-47a42ad4baa0
Diagonal Paraguay 406, Santiago, Chile, Barrio San Borja, Santiago, RM (Metropolitana)|1746|26|1|1|-33.4429142|-70.6420822|https://www.portalinmobiliario.com/MLC-2341754712-dpto-studio-rebajado-en-santiago-centro-_JM#position=28&search_layout=grid&type=item&tracking_id=a8c2002b-11fb-4c60-813d-ee8b70250e71
San Francisco Con A Alonso Ovalle, Bulnes, Santiago, RM (Metropolitana)|2890|49|2|2|-33.4453236|-70.6469136|https://www.portalinmobiliario.com/MLC-1440925931-departamento-en-venta-de-2-dorm-en-santiago-_JM#position=47&search_layout=grid&type=item&tracking_id=19fb1f01-4932-43df-907d-da92b14c9166
|0|0|0|0|||https://www.portalinmobiliario.com/MLC-2381889564-metro-los-heroes-y-santa-ana-cod-2912-_JM#position=35&search_layout=grid&type=item&tracking_id=958c33f1-abd7-48a3-9d06-660520505b9d
San Francisco Con Tarapacá, Bulnes, Santiago, RM (Metropolitana)|1820|32|1|1|-33.4475242|-70.6467649|https://www.portalinmobiliario.com/MLC-1467986187-departamento-1-dorm-para-inversion-santiago-_JM#position=19&search_layout=grid&type=item&tracking_id=19fb1f01-4932-43df-907d-da92b14c9166
Centro Histórico de Santiago, Santiago, RM (Metropolitana)|1959|30|1|1|-33.435569|-70.65708|https://www.portalinmobiliario.com/MLC-2196877488-departamento-en-venta-para-inversion-santiago-_JM#position=3&search_layout=grid&type=item&tracking_id=a10e7d70-60f1-4b35-ba57-4b58ccfe8b29
Arturo Prat / Condor, San Diego, Santiago, RM (Metropolitana)|3850|65|3|2|-33.4502891|-70.6497466|https://www.portalinmobiliario.com/MLC-2379687546-departamento-en-venta-de-3-dorm-en-santiago-_JM#position=33&search_layout=grid&type=item&tracking_id=89e952a9-a81f-45d4-83b3-f404e1f577b6
Yungay 3144, Parque Los Reyes, Santiago, RM (Metropolitana)|3933|55|2|2|-33.4290874|-70.6791956|https://www.portalinmobiliario.com/MLC-1475172237-se-vende-cesion-de-promesa-depto-mariposa-504-b-de-2d2b-en-e-_JM#position=22&search_layout=grid&type=item&tracking_id=4314cd6e-d858-43d9-8d32-ab272fe9ab73
Metro Rondizzoni/sargento Aldea Incluye Bodega, Parque O'Higgins, Santiago, RM (Metropolitana)|1550|26|0|1|-33.4687803|-70.6490745|https://www.portalinmobiliario.com/MLC-1464628165-metro-rondizzonisargento-aldea-incluye-bodega-_JM#position=9&search_layout=grid&type=item&tracking_id=2dce33c9-a2a7-41d4-97a7-44a2755aa8c2
¡precio Rebajado!/metro Irarrázaval, Barrio Diez de Julio, Santiago, RM (Metropolitana)|2250|47|2|1|-33.4544104|-70.6330008|https://www.portalinmobiliario.com/MLC-1476515749-departamento-precio-rebajadometro-irarrazaval-_JM#position=27&search_layout=grid&type=item&tracking_id=69bec6bd-6a7c-4f18-b658-5ec9b236d1c1
Santa Isabel/ Vicuña Mackenna, Santa Isabel, Santiago, RM (Metropolitana)|2190|32|1|1|-33.4483596|-70.6322635|https://www.portalinmobiliario.com/MLC-1463440321-venta-departamento-1-dorm-en-santiago-santa-isabel-_JM#position=38&search_layout=grid&type=item&tracking_id=14e0d470-229c-4585-a472-1cb8dec6b125
Santa Elena, Bogotá - Sierra Bella, Santiago, RM (Metropolitana)|2100|42|2|1|-33.4669149|-70.6277899|https://www.portalinmobiliario.com/MLC-1451963939-departamento-santa-elena-id-118996-_JM#position=42&search_layout=grid&type=item&tracking_id=88f210af-410b-440c-bd0f-b2e479178e41
Agustinas, 2376, Barrio Yungay, Santiago, RM (Metropolitana)|2600|44|1|1|-33.442884|-70.669341|https://www.portalinmobiliario.com/MLC-2278682622-departamento-1-d-1-b-santiago-centro-_JM#position=27&search_layout=grid&type=item&tracking_id=5575e832-fec4-4dea-ac39-565149c89577
Entre Calles 10 De Julio Y Santa Isabel, Parque Almagro, Santiago, RM (Metropolitana)|1590|24|1|1|-33.4539477|-70.6559472|https://www.portalinmobiliario.com/MLC-2285005968-aceptamos-subsidio-depto-en-venta-de-1-dorm-en-santiago-_JM#position=12&search_layout=grid&type=item&tracking_id=d055177d-acc3-4715-9fd0-810727db43a5
San Martín 714, Santiago, Chile, Centro Histórico de Santiago, Santiago, RM (Metropolitana)|2443|46|2|1|-33.4353792|-70.6588077|https://www.portalinmobiliario.com/MLC-1438198433-departamento-2-dormitorio-estacionamiento-metro-santa-ana-_JM#position=4&search_layout=grid&type=item&tracking_id=8347844a-839a-46b3-8614-b81ba32195e1
Calle Mosqueto / Bellas Artes / Metro Bellas Artes, Centro Histórico de Santiago, Santiago, RM (Metropolitana)|1763|29|1|1|-33.4362754|-70.6443941|https://www.portalinmobiliario.com/MLC-1458328335-calle-mosqueto-bellas-artes-metro-bellas-artes-_JM#position=42&search_layout=grid&type=item&tracking_id=84b2d68f-4be8-446f-bd0e-3fb7685c8a61
Venta Amplio Depto 1 Dorm.+1 Baño+1 Estac+1 Bodega, Centro Histórico de Santiago, Santiago, RM (Metropolitana)|2750|48|1|1|-33.4343938|-70.6558963|https://www.portalinmobiliario.com/MLC-1467758399-venta-amplio-depto-1-dorm1-bano1-estac1-bodega-_JM#position=45&search_layout=grid&type=item&tracking_id=07da5b4d-f244-42bd-8a63-1e01476fcd2e
Tarapacá, Bulnes, Santiago, RM (Metropolitana)|3100|60|2|2|-33.4479637|-70.6541797|https://www.portalinmobiliario.com/MLC-2265084560-departamento-en-venta-de-2-dorm-en-santiago-_JM#position=20&search_layout=grid&type=item&tracking_id=028e1403-868e-4d2f-ba9a-cb1e2d4c4752
Se Vende Departamento//santiago Centro, Santa Isabel, Santiago, RM (Metropolitana)|3100|55|2|2|-33.4503902|-70.6411801|https://www.portalinmobiliario.com/MLC-1475868121-se-vende-departamentosantiago-centro-26609-_JM#position=23&search_layout=grid&type=item&tracking_id=68af4bd7-e50c-4466-9cc9-6981513ff78d
San Diego, 1 - 300, Bulnes, Santiago, RM (Metropolitana)|1850|21|0|1|-33.4468844|-70.6513479|https://www.portalinmobiliario.com/MLC-1464580685-venta-tipo-estudio-santiago-_JM#position=12&search_layout=grid&type=item&tracking_id=50b8513f-2206-4e0d-8b15-0439a177dab8
Av. Sta. Isabel 300 - 600, Santiago, Chile, Santa Isabel, Santiago, RM (Metropolitana)|2365|50|2|1|-33.4495305|-70.6412674|https://www.portalinmobiliario.com/MLC-2090441758-lindo-departamento-en-santa-isabel-con-carmen-_JM#position=18&search_layout=grid&type=item&tracking_id=92f3fbc4-b221-4e2a-9eeb-264c988d4092
Centro Histórico de Santiago, Santiago, RM (Metropolitana)|2500|37|1|1|-33.437918|-70.645614|https://www.portalinmobiliario.com/MLC-1456535187-departamento-santiago-centro-1d1b-_JM#position=34&search_layout=grid&type=item&tracking_id=cf516be5-79cc-42a9-9e55-a6a546ba85e4
Serrano, San Diego, Santiago, RM (Metropolitana)|1300|25|1|1|-33.4524724|-70.6479555|https://www.portalinmobiliario.com/MLC-2117687056-departamento-serrano-id-28940-_JM#position=32&search_layout=grid&type=item&tracking_id=31dba42f-d1f5-4994-b25d-c82b3973d5dd
General Bulnes, Barrio Yungay, Santiago, RM (Metropolitana)|2860|54|2|1|-33.436759|-70.6706983|https://www.portalinmobiliario.com/MLC-2375756434-oportunidad-ven-ta-de-depto-uf-2860-en-santiago-centro--_JM#position=3&search_layout=grid&type=item&tracking_id=5575e832-fec4-4dea-ac39-565149c89577
Avenida Presidente Balmaceda, Parque Los Reyes, Santiago, RM (Metropolitana)|2650|58|2|2|-33.4269062|-70.6771483|https://www.portalinmobiliario.com/MLC-2355327832-departamento-avenida-presidente-balmaceda-id-124582-_JM#position=19&search_layout=grid&type=item&tracking_id=a98e79ca-dc2b-4ac9-bc8f-48ab6449071e
Av. Manuel Rodríguez 881, Centro Histórico de Santiago, Santiago, RM (Metropolitana)|1950|27|1|1|-33.433426|-70.660057|https://www.portalinmobiliario.com/MLC-1437573763-edificio-av-manuel-rodriguez-piso-26-_JM#position=32&search_layout=grid&type=item&tracking_id=46781530-2038-47ff-9995-a7ec07fbfa02
Ejercito Libertador Esquina Toesca, Ejército - Toesca, Santiago, RM (Metropolitana)|2100|47|1|1|-33.4535085|-70.660094|https://www.portalinmobiliario.com/MLC-2152555356-venta-departamento-santiago-toesca-47m-1dormitorio-1bano-_JM#position=16&search_layout=grid&type=item&tracking_id=861e6a3f-e77a-4c7e-bc20-867c51f8dae7
Entre Calles Grajales Y Tarapaca, Bulnes, Santiago, RM (Metropolitana)|1600|33|1|1|-33.4493194|-70.6544736|https://www.portalinmobiliario.com/MLC-1457027947-departamento-en-venta-de-1-dorm-en-santiago-_JM#position=18&search_layout=grid&type=item&tracking_id=19fb1f01-4932-43df-907d-da92b14c9166
Santiago Concha / Av Matta  1d, Bogotá - Sierra Bella, Santiago, RM (Metropolitana)|2250|32|1|1|-33.4583139|-70.6402218|https://www.portalinmobiliario.com/MLC-2117699624-departamento-santiago-concha-av-matta-1d-id-83568-_JM#position=7&search_layout=grid&type=item&tracking_id=0c8d3af2-2e85-4fae-a943-78b219316675
Toesca 2946, Depto 410, Santiago Centro, Santiago, Chile, Meiggs, Santiago, RM (Metropolitana)|2200|48|2|1|-33.4564918|-70.6764788|https://www.portalinmobiliario.com/MLC-2068499600-oportunidad-inversion-departamento-2d-1b-toesca--_JM#position=18&search_layout=grid&type=item&tracking_id=53c24ed8-8154-483a-b32b-25ed7ae1a889
Metro Santa Ana, Centro Histórico de Santiago, Santiago, RM (Metropolitana)|2250|46|2|1|-33.4337294|-70.6586822|https://www.portalinmobiliario.com/MLC-1476325407-departamento-en-venta-de-2-dorm-en-santiago-_JM#position=1&search_layout=grid&type=item&tracking_id=cf516be5-79cc-42a9-9e55-a6a546ba85e4
Amunátegui 890, Santiago, Chile, Centro Histórico de Santiago, Santiago, RM (Metropolitana)|3100|60|2|2|-33.4333972|-70.6574374|https://www.portalinmobiliario.com/MLC-1442215811-vende-acogedor-dept-2-d-2-b-terraza-y-estacionamiento-_JM#position=3&search_layout=grid&type=item&tracking_id=be84efed-8c56-4731-8f66-f7d3471098e6
Portugal 333, Santiago, Región Metropolitana, Chile, Santa Isabel, Santiago, RM (Metropolitana)|3300|90|3|2|-33.4464776|-70.6363155|https://www.portalinmobiliario.com/MLC-1478176399-amplio-departamento-en-venta-3d-santiago-centro-_JM#position=43&search_layout=grid&type=item&tracking_id=ae078f09-9f02-426a-a7a3-c76c48996a6a
Lord Cochrane, Parque Almagro, Santiago, RM (Metropolitana)|2450|49|2|1|-33.4589256|-70.653753|https://www.portalinmobiliario.com/MLC-2117622400-departamento-lord-cochrane-id-94323-_JM#position=17&search_layout=grid&type=item&tracking_id=cc3e9985-9fc0-4e7c-86ab-0563e313939a
Morandé, Centro Histórico de Santiago, Santiago, RM (Metropolitana)|4500|56|2|2|-33.4367143|-70.6542235|https://www.portalinmobiliario.com/MLC-2117699836-departamento-morande-id-54261-_JM#position=31&search_layout=grid&type=item&tracking_id=49943384-f989-4205-b91b-6e8f87608dc8
